{"type":"Topology","transform":{"scale":[0.0036000360003600037,0.0017362533225332255],"translate":[-180,-90]},"objects":{"world":{"type":"GeometryCollection","geometries":[{"type":"MultiPolygon","id":"ATG","arcs":[[[0]],[[1]]],"properties":{"FIPS":"AC","ISO2":"AG","ISO3":"ATG","UN":28,"NAME":"Antigua and Barbuda","AREA":44,"POP2005":83039,"REGION":19,"SUBREGION":29,"LON":-61.783,"LAT":17.078}},{"type":"Polygon","id":"DZA","arcs":[[2,3,4,5,6,7,8,9]],"properties":{"FIPS":"AG","ISO2":"DZ","ISO3":"DZA","UN":12,"NAME":"Algeria","AREA":238174,"POP2005":32854159,"REGION":2,"SUBREGION":15,"LON":2.632,"LAT":28.163}},{"type":"MultiPolygon","id":"AZE","arcs":[[[10,11,12]],[[13]],[[14]],[[15,16,17,18,19],[20]]],"properties":{"FIPS":"AJ","ISO2":"AZ","ISO3":"AZE","UN":31,"NAME":"Azerbaijan","AREA":8260,"POP2005":8352021,"REGION":142,"SUBREGION":145,"LON":47.395,"LAT":40.43}},{"type":"Polygon","id":"ALB","arcs":[[21,22,23,24,25]],"properties":{"FIPS":"AL","ISO2":"AL","ISO3":"ALB","UN":8,"NAME":"Albania","AREA":2740,"POP2005":3153731,"REGION":150,"SUBREGION":39,"LON":20.068,"LAT":41.143}},{"type":"MultiPolygon","id":"ARM","arcs":[[[26]],[[27,-13,28,29,-17],[30],[31]]],"properties":{"FIPS":"AM","ISO2":"AM","ISO3":"ARM","UN":51,"NAME":"Armenia","AREA":2820,"POP2005":3017661,"REGION":142,"SUBREGION":145,"LON":44.563,"LAT":40.534}},{"type":"MultiPolygon","id":"AGO","arcs":[[[32]],[[33,34,35,36]],[[37,38,39]]],"properties":{"FIPS":"AO","ISO2":"AO","ISO3":"AGO","UN":24,"NAME":"Angola","AREA":124670,"POP2005":16095214,"REGION":2,"SUBREGION":17,"LON":17.544,"LAT":-12.296}},{"type":"MultiPolygon","id":"ASM","arcs":[[[40]],[[41]],[[42]],[[43]],[[44]]],"properties":{"FIPS":"AQ","ISO2":"AS","ISO3":"ASM","UN":16,"NAME":"American Samoa","AREA":20,"POP2005":64051,"REGION":9,"SUBREGION":61,"LON":-170.73,"LAT":-14.318}},{"type":"MultiPolygon","id":"ARG","arcs":[[[45,46]],[[47]],[[48,49]],[[50]],[[51]],[[52,53,54,55,56,57]]],"properties":{"FIPS":"AR","ISO2":"AR","ISO3":"ARG","UN":32,"NAME":"Argentina","AREA":273669,"POP2005":38747148,"REGION":19,"SUBREGION":5,"LON":-65.167,"LAT":-35.377}},{"type":"MultiPolygon","id":"AUS","arcs":[[[58]],[[59]],[[60]],[[61]],[[62]],[[63]],[[64]],[[65]],[[66]],[[67]],[[68]],[[69]],[[70]],[[71]],[[72]],[[73]],[[74]],[[75]],[[76]],[[77]],[[78]],[[79]],[[80]],[[81]],[[82]],[[83]],[[84]],[[85]],[[86]],[[87]],[[88]],[[89]],[[90]],[[91]],[[92]],[[93]],[[94]],[[95]],[[96]],[[97]],[[98]],[[99]],[[100]],[[101]],[[102]],[[103]],[[104]],[[105]],[[106]],[[107]],[[108]],[[109]],[[110]],[[111]],[[112]],[[113]],[[114]],[[115]],[[116]],[[117]],[[118]],[[119]],[[120]],[[121]],[[122]],[[123]],[[124]],[[125]],[[126]],[[127]],[[128]],[[129]],[[130]],[[131]],[[132]],[[133]],[[134]],[[135]],[[136]],[[137]],[[138]],[[139]],[[140]],[[141]],[[142]],[[143]],[[144]],[[145]],[[146]],[[147]],[[148]],[[149]],[[150]],[[151]],[[152]],[[153]],[[154]]],"properties":{"FIPS":"AS","ISO2":"AU","ISO3":"AUS","UN":36,"NAME":"Australia","AREA":768230,"POP2005":20310208,"REGION":9,"SUBREGION":53,"LON":136.189,"LAT":-24.973}},{"type":"MultiPolygon","id":"BHR","arcs":[[[155]],[[156]],[[157]],[[158]],[[159]],[[160]]],"properties":{"FIPS":"BA","ISO2":"BH","ISO3":"BHR","UN":48,"NAME":"Bahrain","AREA":71,"POP2005":724788,"REGION":142,"SUBREGION":145,"LON":50.562,"LAT":26.019}},{"type":"Polygon","id":"BRB","arcs":[[161]],"properties":{"FIPS":"BB","ISO2":"BB","ISO3":"BRB","UN":52,"NAME":"Barbados","AREA":43,"POP2005":291933,"REGION":19,"SUBREGION":29,"LON":-59.559,"LAT":13.153}},{"type":"MultiPolygon","id":"BMU","arcs":[[[162]],[[163]],[[164]]],"properties":{"FIPS":"BD","ISO2":"BM","ISO3":"BMU","UN":60,"NAME":"Bermuda","AREA":5,"POP2005":64174,"REGION":19,"SUBREGION":21,"LON":-64.709,"LAT":32.336}},{"type":"MultiPolygon","id":"BHS","arcs":[[[165]],[[166]],[[167]],[[168]],[[169]],[[170]],[[171]],[[172]],[[173]],[[174]],[[175]],[[176]],[[177]],[[178]],[[179]],[[180]],[[181]],[[182]],[[183]],[[184]],[[185]],[[186]],[[187]],[[188]],[[189]],[[190]],[[191]],[[192]]],"properties":{"FIPS":"BF","ISO2":"BS","ISO3":"BHS","UN":44,"NAME":"Bahamas","AREA":1001,"POP2005":323295,"REGION":19,"SUBREGION":29,"LON":-78.014,"LAT":24.628}},{"type":"MultiPolygon","id":"BGD","arcs":[[[193]],[[194]],[[195]],[[196]],[[197]],[[198]],[[199]],[[200]],[[201]],[[202]],[[203]],[[204]],[[205]],[[206]],[[207]],[[208]],[[209]],[[210]],[[211]],[[212]],[[213]],[[214]],[[215]],[[216]],[[217]],[[218]],[[219]],[[220]],[[221]],[[222]],[[223]],[[224]],[[225]],[[226]],[[227,228,229],[230]]],"properties":{"FIPS":"BG","ISO2":"BD","ISO3":"BGD","UN":50,"NAME":"Bangladesh","AREA":13017,"POP2005":15328112,"REGION":142,"SUBREGION":34,"LON":89.941,"LAT":24.218}},{"type":"MultiPolygon","id":"BLZ","arcs":[[[231]],[[232]],[[233]],[[234]],[[235]],[[236,237,238]]],"properties":{"FIPS":"BH","ISO2":"BZ","ISO3":"BLZ","UN":84,"NAME":"Belize","AREA":2281,"POP2005":275546,"REGION":19,"SUBREGION":13,"LON":-88.602,"LAT":17.219}},{"type":"Polygon","id":"BIH","arcs":[[239,240,241,242,243]],"properties":{"FIPS":"BK","ISO2":"BA","ISO3":"BIH","UN":70,"NAME":"Bosnia and Herzegovina","AREA":5120,"POP2005":3915238,"REGION":150,"SUBREGION":39,"LON":17.786,"LAT":44.169}},{"type":"Polygon","id":"BOL","arcs":[[244,245,246,247,-58]],"properties":{"FIPS":"BL","ISO2":"BO","ISO3":"BOL","UN":68,"NAME":"Bolivia","AREA":108438,"POP2005":9182015,"REGION":19,"SUBREGION":5,"LON":-64.671,"LAT":-16.715}},{"type":"MultiPolygon","id":"MMR","arcs":[[[248]],[[249]],[[250]],[[251]],[[252]],[[253]],[[254]],[[255]],[[256]],[[257]],[[258]],[[259]],[[260]],[[261]],[[262]],[[263]],[[264]],[[265]],[[266]],[[267]],[[268]],[[269]],[[270]],[[271]],[[272]],[[273]],[[274]],[[275]],[[276]],[[277]],[[278]],[[279]],[[280]],[[281]],[[282]],[[283]],[[284]],[[285]],[[286]],[[287]],[[288]],[[289]],[[290]],[[291,292,293,-228,294,295]]],"properties":{"FIPS":"BM","ISO2":"MM","ISO3":"MMR","UN":104,"NAME":"Burma","AREA":65755,"POP2005":47967266,"REGION":142,"SUBREGION":35,"LON":96.041,"LAT":21.718}},{"type":"Polygon","id":"BEN","arcs":[[296,297,298,299,300]],"properties":{"FIPS":"BN","ISO2":"BJ","ISO3":"BEN","UN":204,"NAME":"Benin","AREA":11062,"POP2005":8490301,"REGION":2,"SUBREGION":11,"LON":2.469,"LAT":10.541}},{"type":"MultiPolygon","id":"SLB","arcs":[[[301]],[[302]],[[303]],[[304]],[[305]],[[306]],[[307]],[[308]],[[309]],[[310]],[[311]],[[312]],[[313]],[[314]],[[315]],[[316]],[[317]],[[318]],[[319]],[[320]],[[321]],[[322]],[[323]],[[324]],[[325]],[[326]],[[327]],[[328]],[[329]],[[330]],[[331]],[[332]],[[333]],[[334]],[[335]],[[336]],[[337]],[[338]],[[339]],[[340]],[[341]],[[342]],[[343]],[[344]],[[345]],[[346]],[[347]],[[348]],[[349]],[[350]],[[351]]],"properties":{"FIPS":"BP","ISO2":"SB","ISO3":"SLB","UN":90,"NAME":"Solomon Islands","AREA":2799,"POP2005":472419,"REGION":9,"SUBREGION":54,"LON":160.109,"LAT":-9.611}},{"type":"MultiPolygon","id":"BRA","arcs":[[[352]],[[353]],[[354]],[[355]],[[356]],[[357]],[[358]],[[359]],[[360]],[[361]],[[362]],[[363]],[[364]],[[365]],[[366]],[[367]],[[368]],[[369]],[[370]],[[371]],[[372]],[[373]],[[374]],[[375]],[[376]],[[377]],[[378]],[[379]],[[380]],[[381]],[[382]],[[383]],[[384]],[[385]],[[386]],[[387]],[[388]],[[389]],[[390]],[[391]],[[392]],[[393]],[[394]],[[395]],[[396]],[[397]],[[398]],[[399]],[[400]],[[401]],[[402]],[[403]],[[404]],[[405]],[[406]],[[407]],[[408]],[[409]],[[410]],[[411]],[[412]],[[413]],[[414,415,416,417,-54,418,-247,419,420,421,422]]],"properties":{"FIPS":"BR","ISO2":"BR","ISO3":"BRA","UN":76,"NAME":"Brazil","AREA":845942,"POP2005":186830759,"REGION":19,"SUBREGION":5,"LON":-53.089,"LAT":-10.772}},{"type":"Polygon","id":"BGR","arcs":[[423,424,425,426,427,428,429,430]],"properties":{"FIPS":"BU","ISO2":"BG","ISO3":"BGR","UN":100,"NAME":"Bulgaria","AREA":11063,"POP2005":7744591,"REGION":150,"SUBREGION":151,"LON":25.231,"LAT":42.761}},{"type":"MultiPolygon","id":"BRN","arcs":[[[431,432]],[[433,434]]],"properties":{"FIPS":"BX","ISO2":"BN","ISO3":"BRN","UN":96,"NAME":"Brunei Darussalam","AREA":527,"POP2005":373831,"REGION":142,"SUBREGION":35,"LON":114.591,"LAT":4.468}},{"type":"MultiPolygon","id":"CAN","arcs":[[[435]],[[436]],[[437]],[[438]],[[439]],[[440]],[[441]],[[442]],[[443]],[[444]],[[445]],[[446]],[[447]],[[448]],[[449]],[[450]],[[451]],[[452]],[[453]],[[454]],[[455]],[[456]],[[457]],[[458]],[[459]],[[460]],[[461]],[[462]],[[463]],[[464]],[[465]],[[466]],[[467]],[[468]],[[469]],[[470]],[[471]],[[472]],[[473]],[[474]],[[475]],[[476]],[[477]],[[478]],[[479]],[[480]],[[481]],[[482]],[[483]],[[484]],[[485]],[[486]],[[487]],[[488]],[[489]],[[490]],[[491]],[[492]],[[493]],[[494]],[[495]],[[496]],[[497]],[[498]],[[499]],[[500]],[[501]],[[502]],[[503]],[[504]],[[505]],[[506]],[[507]],[[508]],[[509]],[[510]],[[511]],[[512]],[[513]],[[514]],[[515]],[[516]],[[517]],[[518]],[[519]],[[520]],[[521]],[[522]],[[523]],[[524]],[[525]],[[526]],[[527]],[[528]],[[529]],[[530]],[[531]],[[532]],[[533]],[[534]],[[535]],[[536]],[[537]],[[538]],[[539]],[[540]],[[541]],[[542]],[[543]],[[544]],[[545]],[[546]],[[547]],[[548]],[[549]],[[550]],[[551]],[[552]],[[553]],[[554]],[[555]],[[556]],[[557]],[[558]],[[559]],[[560]],[[561]],[[562]],[[563]],[[564]],[[565]],[[566]],[[567]],[[568]],[[569]],[[570]],[[571]],[[572]],[[573]],[[574]],[[575]],[[576]],[[577]],[[578]],[[579]],[[580]],[[581]],[[582]],[[583]],[[584]],[[585]],[[586]],[[587]],[[588]],[[589]],[[590]],[[591]],[[592]],[[593]],[[594]],[[595]],[[596]],[[597]],[[598]],[[599]],[[600]],[[601]],[[602]],[[603]],[[604]],[[605]],[[606]],[[607]],[[608]],[[609]],[[610]],[[611]],[[612]],[[613]],[[614]],[[615]],[[616]],[[617]],[[618]],[[619]],[[620]],[[621]],[[622]],[[623]],[[624]],[[625]],[[626]],[[627]],[[628]],[[629]],[[630]],[[631]],[[632]],[[633]],[[634]],[[635]],[[636]],[[637]],[[638]],[[639]],[[640]],[[641]],[[642]],[[643]],[[644]],[[645]],[[646]],[[647]],[[648]],[[649]],[[650]],[[651]],[[652]],[[653]],[[654]],[[655]],[[656]],[[657]],[[658]],[[659]],[[660]],[[661]],[[662]],[[663]],[[664]],[[665]],[[666]],[[667]],[[668]],[[669]],[[670]],[[671]],[[672]],[[673]],[[674]],[[675]],[[676]],[[677]],[[678]],[[679]],[[680]],[[681]],[[682]],[[683]],[[684]],[[685]],[[686]],[[687]],[[688]],[[689]],[[690]],[[691]],[[692]],[[693]],[[694]],[[695]],[[696]],[[697]],[[698]],[[699]],[[700]],[[701]],[[702]],[[703]],[[704]],[[705]],[[706]],[[707]],[[708]],[[709]],[[710]],[[711]],[[712]],[[713]],[[714]],[[715]],[[716]],[[717]],[[718]],[[719]],[[720]],[[721]],[[722]],[[723]],[[724]],[[725]],[[726]],[[727]],[[728]],[[729]],[[730]],[[731]],[[732]],[[733]],[[734]],[[735]],[[736]],[[737]],[[738]],[[739]],[[740]],[[741]],[[742]],[[743]],[[744]],[[745]],[[746]],[[747]],[[748]],[[749]],[[750]],[[751]],[[752]],[[753]],[[754]],[[755]],[[756]],[[757]],[[758]],[[759]],[[760]],[[761]],[[762]],[[763]],[[764]],[[765]],[[766]],[[767]],[[768]],[[769]],[[770]],[[771]],[[772]],[[773]],[[774]],[[775]],[[776]],[[777]],[[778]],[[779]],[[780,781]],[[782]],[[783]],[[784]],[[785]],[[786]],[[787]],[[788]],[[789]],[[790]],[[791]],[[792]],[[793]],[[794]],[[795]],[[796]],[[797]],[[798]],[[799]],[[800]],[[801]],[[802]],[[803]],[[804]],[[805]],[[806]],[[807]],[[808]],[[809]],[[810]],[[811]],[[812]],[[813]],[[814]],[[815]],[[816,817,818,819,820,821,822,823],[824],[825]],[[826]],[[827]],[[828]],[[829]],[[830]],[[831]],[[832]],[[833]],[[834]],[[835]],[[836]],[[837]],[[838]],[[839]],[[840]],[[841]],[[842]],[[843]],[[844]],[[845]],[[846]],[[847]],[[848]],[[849]],[[850]],[[851]],[[852]],[[853]],[[854]],[[855]],[[856]],[[857]],[[858]],[[859]],[[860]],[[861]],[[862]],[[863]],[[864]],[[865]],[[866]],[[867]],[[868]],[[869]],[[870]],[[871]],[[872]],[[873]],[[874]],[[875]],[[876]],[[877]],[[878]],[[879]],[[880]],[[881]],[[882]],[[883]],[[884]],[[885]],[[886]],[[887]],[[888]],[[889]],[[890]],[[891]],[[892]],[[893]],[[894]],[[895]],[[896]],[[897]],[[898]],[[899]],[[900]],[[901]],[[902]],[[903]],[[904]],[[905]],[[906]],[[907]],[[908]],[[909]],[[910]],[[911]],[[912]],[[913]],[[914]],[[915]],[[916]],[[917]],[[918]],[[919]],[[920]],[[921]],[[922]]],"properties":{"FIPS":"CA","ISO2":"CA","ISO3":"CAN","UN":124,"NAME":"Canada","AREA":909351,"POP2005":32270507,"REGION":19,"SUBREGION":21,"LON":-109.433,"LAT":59.081}},{"type":"MultiPolygon","id":"KHM","arcs":[[[923]],[[924]],[[925]],[[926]],[[927,928,929,930]]],"properties":{"FIPS":"CB","ISO2":"KH","ISO3":"KHM","UN":116,"NAME":"Cambodia","AREA":17652,"POP2005":13955507,"REGION":142,"SUBREGION":35,"LON":104.564,"LAT":12.714}},{"type":"MultiPolygon","id":"LKA","arcs":[[[931]],[[932]],[[933]],[[934]],[[935]],[[936]]],"properties":{"FIPS":"CE","ISO2":"LK","ISO3":"LKA","UN":144,"NAME":"Sri Lanka","AREA":6463,"POP2005":19120763,"REGION":142,"SUBREGION":34,"LON":80.704,"LAT":7.612}},{"type":"Polygon","id":"COG","arcs":[[937,938,939,940,-38,941]],"properties":{"FIPS":"CF","ISO2":"CG","ISO3":"COG","UN":178,"NAME":"Congo","AREA":34150,"POP2005":3609851,"REGION":2,"SUBREGION":17,"LON":15.986,"LAT":-0.055}},{"type":"MultiPolygon","id":"COD","arcs":[[[942]],[[943,944,945,946,947,948,-37,949,-39,-941,950]]],"properties":{"FIPS":"CG","ISO2":"CD","ISO3":"COD","UN":180,"NAME":"Democratic Republic of the Congo","AREA":226705,"POP2005":58740547,"REGION":2,"SUBREGION":17,"LON":23.654,"LAT":-2.876}},{"type":"Polygon","id":"BDI","arcs":[[951,952,-947]],"properties":{"FIPS":"BY","ISO2":"BI","ISO3":"BDI","UN":108,"NAME":"Burundi","AREA":2568,"POP2005":7858791,"REGION":2,"SUBREGION":14,"LON":29.887,"LAT":-3.356}},{"type":"MultiPolygon","id":"CHN","arcs":[[[953]],[[954]],[[955]],[[956]],[[957]],[[958]],[[959]],[[960]],[[961]],[[962]],[[963]],[[964]],[[965]],[[966]],[[967]],[[968]],[[969]],[[970]],[[971]],[[972]],[[973]],[[974]],[[975]],[[976]],[[977]],[[978]],[[979]],[[980]],[[981]],[[982]],[[983]],[[984]],[[985]],[[986,987,988,989,990,991,992,993,-296,994,995,996,997,998,999,1000,1001,1002,1003,1004,1005,1006,1007,1008]]],"properties":{"FIPS":"CH","ISO2":"CN","ISO3":"CHN","UN":156,"NAME":"China","AREA":932743,"POP2005":1312978855,"REGION":142,"SUBREGION":30,"LON":106.514,"LAT":33.42}},{"type":"Polygon","id":"AFG","arcs":[[1009,1010,1011,1012,1013,-1001]],"properties":{"FIPS":"AF","ISO2":"AF","ISO3":"AFG","UN":4,"NAME":"Afghanistan","AREA":65209,"POP2005":25067407,"REGION":142,"SUBREGION":34,"LON":65.216,"LAT":33.677}},{"type":"Polygon","id":"BTN","arcs":[[1014,-996]],"properties":{"FIPS":"BT","ISO2":"BT","ISO3":"BTN","UN":64,"NAME":"Bhutan","AREA":4700,"POP2005":637013,"REGION":142,"SUBREGION":34,"LON":90.429,"LAT":27.415}},{"type":"MultiPolygon","id":"CHL","arcs":[[[1015]],[[1016]],[[1017]],[[1018]],[[1019]],[[1020]],[[1021]],[[1022]],[[1023]],[[1024]],[[1025]],[[1026]],[[1027]],[[1028]],[[1029]],[[1030]],[[1031]],[[1032]],[[1033]],[[1034]],[[1035]],[[1036]],[[1037]],[[1038]],[[1039]],[[1040]],[[1041]],[[1042]],[[1043]],[[1044]],[[1045]],[[1046]],[[1047]],[[-49,1048,-46,1049]],[[1050]],[[1051]],[[1052]],[[1053]],[[1054]],[[1055]],[[1056]],[[1057]],[[1058]],[[1059]],[[1060]],[[1061]],[[1062]],[[1063]],[[1064]],[[1065]],[[1066]],[[1067]],[[1068]],[[1069]],[[1070]],[[1071]],[[1072]],[[1073]],[[1074]],[[1075]],[[1076]],[[1077]],[[1078]],[[1079]],[[1080]],[[1081]],[[1082]],[[1083]],[[1084]],[[1085]],[[1086]],[[1087]],[[1088]],[[1089]],[[1090]],[[1091]],[[1092]],[[1093]],[[1094]],[[1095]],[[1096]],[[1097]],[[1098]],[[1099]],[[1100]],[[1101]],[[1102]],[[1103]],[[1104]],[[1105]],[[1106]],[[1107]],[[1108]],[[1109]],[[1110]],[[1111]],[[1112]],[[1113]],[[1114]],[[1115]],[[1116]],[[1117]],[[1118]],[[1119]],[[1120]],[[1121]],[[1122]],[[1123]],[[1124]],[[1125]],[[1126]],[[1127]],[[1128]],[[1129]],[[1130]],[[1131]],[[1132]],[[1133]],[[1134]],[[1135]],[[1136]],[[1137]],[[1138]],[[1139]],[[1140]],[[1141]],[[1142]],[[1143]],[[1144]],[[1145]],[[1146]],[[1147]],[[1148]],[[1149]],[[1150]],[[1151]],[[1152]],[[1153]],[[1154]],[[1155]],[[1156]],[[1157]],[[1158]],[[1159]],[[1160]],[[1161]],[[1162]],[[-57,1163,1164,-245],[1165]]],"properties":{"FIPS":"CI","ISO2":"CL","ISO3":"CHL","UN":152,"NAME":"Chile","AREA":74880,"POP2005":16295102,"REGION":19,"SUBREGION":5,"LON":-69.433,"LAT":-23.389}},{"type":"MultiPolygon","id":"CYM","arcs":[[[1166]],[[1167]],[[1168]]],"properties":{"FIPS":"CJ","ISO2":"KY","ISO3":"CYM","UN":136,"NAME":"Cayman Islands","AREA":26,"POP2005":45591,"REGION":19,"SUBREGION":29,"LON":-81.198,"LAT":19.314}},{"type":"MultiPolygon","id":"CMR","arcs":[[[1169]],[[1170,-939,1171,1172,1173,1174,1175]]],"properties":{"FIPS":"CM","ISO2":"CM","ISO3":"CMR","UN":120,"NAME":"Cameroon","AREA":46540,"POP2005":17795149,"REGION":2,"SUBREGION":17,"LON":12.277,"LAT":5.133}},{"type":"Polygon","id":"TCD","arcs":[[1176,1177,1178,1179,1180,-1176]],"properties":{"FIPS":"CD","ISO2":"TD","ISO3":"TCD","UN":148,"NAME":"Chad","AREA":125920,"POP2005":10145609,"REGION":2,"SUBREGION":17,"LON":18.665,"LAT":15.361}},{"type":"MultiPolygon","id":"COM","arcs":[[[1181]],[[1182]],[[1183]]],"properties":{"FIPS":"CN","ISO2":"KM","ISO3":"COM","UN":174,"NAME":"Comoros","AREA":223,"POP2005":797902,"REGION":2,"SUBREGION":14,"LON":43.337,"LAT":-11.758}},{"type":"MultiPolygon","id":"COL","arcs":[[[1184]],[[1185]],[[1186]],[[1187]],[[1188]],[[1189]],[[1190]],[[1191]],[[1192,-421,1193,1194,1195,1196,1197]],[[1198]],[[1199]]],"properties":{"FIPS":"CO","ISO2":"CO","ISO3":"COL","UN":170,"NAME":"Colombia","AREA":103870,"POP2005":4494579,"REGION":19,"SUBREGION":5,"LON":-73.076,"LAT":3.9}},{"type":"MultiPolygon","id":"CRI","arcs":[[[1200]],[[1201,1202,1203,1204]]],"properties":{"FIPS":"CS","ISO2":"CR","ISO3":"CRI","UN":188,"NAME":"Costa Rica","AREA":5106,"POP2005":4327228,"REGION":19,"SUBREGION":13,"LON":-83.946,"LAT":9.971}},{"type":"Polygon","id":"CAF","arcs":[[1205,-951,-940,-1171,-1181]],"properties":{"FIPS":"CT","ISO2":"CF","ISO3":"CAF","UN":140,"NAME":"Central African Republic","AREA":62298,"POP2005":4191429,"REGION":2,"SUBREGION":17,"LON":20.483,"LAT":6.571}},{"type":"MultiPolygon","id":"CUB","arcs":[[[1206]],[[1207]],[[1208]],[[1209]],[[1210]],[[1211]],[[1212]],[[1213]],[[1214]],[[1215]],[[1216]],[[1217]],[[1218]],[[1219]],[[1220]],[[1221]],[[1222]],[[1223]],[[1224]],[[1225]],[[1226]],[[1227]],[[1228]],[[1229]],[[1230,1231,1232,1233]],[[1234]]],"properties":{"FIPS":"CU","ISO2":"CU","ISO3":"CUB","UN":192,"NAME":"Cuba","AREA":10982,"POP2005":11259905,"REGION":19,"SUBREGION":29,"LON":-77.781,"LAT":21.297}},{"type":"MultiPolygon","id":"CPV","arcs":[[[1235]],[[1236]],[[1237]],[[1238]],[[1239]],[[1240]]],"properties":{"FIPS":"CV","ISO2":"CV","ISO3":"CPV","UN":132,"NAME":"Cape Verde","AREA":403,"POP2005":506807,"REGION":2,"SUBREGION":11,"LON":-23.634,"LAT":15.071}},{"type":"MultiPolygon","id":"COK","arcs":[[[1241]],[[1242]],[[1243]],[[1244]],[[1245]],[[1246]],[[1247]],[[1248]],[[1249]],[[1250]],[[1251]],[[1252]],[[1253]],[[1254]],[[1255]]],"properties":{"FIPS":"CW","ISO2":"CK","ISO3":"COK","UN":184,"NAME":"Cook Islands","AREA":24,"POP2005":13984,"REGION":9,"SUBREGION":61,"LON":-159.782,"LAT":-21.219}},{"type":"Polygon","id":"CYP","arcs":[[1256]],"properties":{"FIPS":"CY","ISO2":"CY","ISO3":"CYP","UN":196,"NAME":"Cyprus","AREA":924,"POP2005":836321,"REGION":142,"SUBREGION":145,"LON":33.219,"LAT":35.043}},{"type":"MultiPolygon","id":"DNK","arcs":[[[1257]],[[1258]],[[1259]],[[1260]],[[1261]],[[1262]],[[1263]],[[1264]],[[1265]],[[1266]],[[1267]],[[1268]],[[1269]],[[1270]],[[1271]],[[1272,1273]],[[1274]],[[1275]]],"properties":{"FIPS":"DA","ISO2":"DK","ISO3":"DNK","UN":208,"NAME":"Denmark","AREA":4243,"POP2005":5416945,"REGION":150,"SUBREGION":154,"LON":9.264,"LAT":56.058}},{"type":"Polygon","id":"DJI","arcs":[[1276,1277,1278,1279]],"properties":{"FIPS":"DJ","ISO2":"DJ","ISO3":"DJI","UN":262,"NAME":"Djibouti","AREA":2318,"POP2005":804206,"REGION":2,"SUBREGION":14,"LON":42.516,"LAT":11.9}},{"type":"Polygon","id":"DMA","arcs":[[1280]],"properties":{"FIPS":"DO","ISO2":"DM","ISO3":"DMA","UN":212,"NAME":"Dominica","AREA":75,"POP2005":67827,"REGION":19,"SUBREGION":29,"LON":-61.356,"LAT":15.475}},{"type":"MultiPolygon","id":"DOM","arcs":[[[1281]],[[1282]],[[1283,1284]]],"properties":{"FIPS":"DR","ISO2":"DO","ISO3":"DOM","UN":214,"NAME":"Dominican Republic","AREA":4838,"POP2005":9469601,"REGION":19,"SUBREGION":29,"LON":-70.729,"LAT":19.015}},{"type":"MultiPolygon","id":"ECU","arcs":[[[1285]],[[1286]],[[1287]],[[1288]],[[1289]],[[1290]],[[1291]],[[1292]],[[1293]],[[1294]],[[1295]],[[1296]],[[1297]],[[1298,1299,-1195]]],"properties":{"FIPS":"EC","ISO2":"EC","ISO3":"ECU","UN":218,"NAME":"Ecuador","AREA":27684,"POP2005":13060993,"REGION":19,"SUBREGION":5,"LON":-78.497,"LAT":-1.385}},{"type":"MultiPolygon","id":"EGY","arcs":[[[1300]],[[1301]],[[1302]],[[1303]],[[1304]],[[1305,1306,1307,1308,1309,1310]]],"properties":{"FIPS":"EG","ISO2":"EG","ISO3":"EGY","UN":818,"NAME":"Egypt","AREA":99545,"POP2005":72849793,"REGION":2,"SUBREGION":15,"LON":29.872,"LAT":26.494}},{"type":"MultiPolygon","id":"IRL","arcs":[[[1311]],[[1312]],[[1313]],[[1314]],[[1315,1316]]],"properties":{"FIPS":"EI","ISO2":"IE","ISO3":"IRL","UN":372,"NAME":"Ireland","AREA":6889,"POP2005":4143294,"REGION":150,"SUBREGION":154,"LON":-8.152,"LAT":53.177}},{"type":"MultiPolygon","id":"GNQ","arcs":[[[1317]],[[1318,1319,-1173]],[[1320]]],"properties":{"FIPS":"EK","ISO2":"GQ","ISO3":"GNQ","UN":226,"NAME":"Equatorial Guinea","AREA":2805,"POP2005":484098,"REGION":2,"SUBREGION":17,"LON":10.488,"LAT":1.607}},{"type":"MultiPolygon","id":"EST","arcs":[[[1321]],[[1322]],[[1323]],[[1324]],[[1325]],[[1326,1327,1328]]],"properties":{"FIPS":"EN","ISO2":"EE","ISO3":"EST","UN":233,"NAME":"Estonia","AREA":4239,"POP2005":1344312,"REGION":150,"SUBREGION":154,"LON":25.793,"LAT":58.674}},{"type":"MultiPolygon","id":"ERI","arcs":[[[1329]],[[1330]],[[-1279,1331,1332,1333]]],"properties":{"FIPS":"ER","ISO2":"ER","ISO3":"ERI","UN":232,"NAME":"Eritrea","AREA":10100,"POP2005":4526722,"REGION":2,"SUBREGION":14,"LON":38.219,"LAT":16.045}},{"type":"MultiPolygon","id":"SLV","arcs":[[[1334]],[[1335,1336,1337]]],"properties":{"FIPS":"ES","ISO2":"SV","ISO3":"SLV","UN":222,"NAME":"El Salvador","AREA":2072,"POP2005":6668356,"REGION":19,"SUBREGION":13,"LON":-88.866,"LAT":13.736}},{"type":"Polygon","id":"ETH","arcs":[[-1278,1338,1339,1340,-1332]],"properties":{"FIPS":"ET","ISO2":"ET","ISO3":"ETH","UN":231,"NAME":"Ethiopia","AREA":100000,"POP2005":78985857,"REGION":2,"SUBREGION":14,"LON":39.616,"LAT":8.626}},{"type":"Polygon","id":"AUT","arcs":[[1341,1342,1343,1344,1345,1346,1347,1348,1349]],"properties":{"FIPS":"AU","ISO2":"AT","ISO3":"AUT","UN":40,"NAME":"Austria","AREA":8245,"POP2005":8291979,"REGION":150,"SUBREGION":155,"LON":14.912,"LAT":47.683}},{"type":"Polygon","id":"CZE","arcs":[[1350,1351,1352,-1350]],"properties":{"FIPS":"EZ","ISO2":"CZ","ISO3":"CZE","UN":203,"NAME":"Czech Republic","AREA":7727,"POP2005":10191762,"REGION":150,"SUBREGION":151,"LON":15.338,"LAT":49.743}},{"type":"Polygon","id":"GUF","arcs":[[-416,1353,1354]],"properties":{"FIPS":"FG","ISO2":"GF","ISO3":"GUF","UN":254,"NAME":"French Guiana","AREA":8815,"POP2005":192099,"REGION":19,"SUBREGION":5,"LON":-53.241,"LAT":3.924}},{"type":"MultiPolygon","id":"FIN","arcs":[[[1355]],[[1356]],[[1357]],[[1358]],[[1359]],[[1360]],[[1361]],[[1362]],[[1363]],[[1364]],[[1365]],[[1366]],[[1367]],[[1368]],[[1369]],[[1370]],[[1371]],[[1372]],[[1373]],[[1374]],[[1375]],[[1376]],[[1377]],[[1378]],[[1379]],[[1380,1381,1382,1383]]],"properties":{"FIPS":"FI","ISO2":"FI","ISO3":"FIN","UN":246,"NAME":"Finland","AREA":30459,"POP2005":5246004,"REGION":150,"SUBREGION":154,"LON":26.272,"LAT":64.504}},{"type":"MultiPolygon","id":"FJI","arcs":[[[1384]],[[1385]],[[1386]],[[1387]],[[1388]],[[1389]],[[1390]],[[1391]],[[1392]],[[1393]],[[1394]],[[1395]],[[1396]],[[1397]],[[1398]],[[1399]],[[1400]],[[1401]],[[1402]],[[1403]],[[1404]],[[1405]],[[1406]],[[1407]],[[1408]],[[1409]],[[1410]],[[1411]],[[1412]],[[1413]],[[1414]],[[1415]],[[1416]],[[1417]],[[1418]],[[1419]],[[1420]]],"properties":{"FIPS":"FJ","ISO2":"FJ","ISO3":"FJI","UN":242,"NAME":"Fiji","AREA":1827,"POP2005":828046,"REGION":9,"SUBREGION":54,"LON":177.974,"LAT":-17.819}},{"type":"MultiPolygon","id":"FLK","arcs":[[[1421]],[[1422]],[[1423]],[[1424]],[[1425]],[[1426]],[[1427]],[[1428]],[[1429]],[[1430]]],"properties":{"FIPS":"FK","ISO2":"FK","ISO3":"FLK","UN":238,"NAME":"Falkland Islands (Malvinas)","AREA":1217,"POP2005":2975,"REGION":19,"SUBREGION":5,"LON":-58.694,"LAT":-51.665}},{"type":"MultiPolygon","id":"FSM","arcs":[[[1431]],[[1432]],[[1433]],[[1434]],[[1435]],[[1436]],[[1437]],[[1438]],[[1439]],[[1440]],[[1441]],[[1442]],[[1443]],[[1444]],[[1445]],[[1446]],[[1447]],[[1448]],[[1449]]],"properties":{"FIPS":"FM","ISO2":"FM","ISO3":"FSM","UN":583,"NAME":"Micronesia, Federated States of","AREA":70,"POP2005":110058,"REGION":9,"SUBREGION":57,"LON":158.235,"LAT":6.883}},{"type":"MultiPolygon","id":"PYF","arcs":[[[1450]],[[1451]],[[1452]],[[1453]],[[1454]],[[1455]],[[1456]],[[1457]],[[1458]],[[1459]],[[1460]],[[1461]],[[1462]],[[1463]],[[1464]],[[1465]],[[1466]],[[1467]],[[1468]],[[1469]],[[1470]],[[1471]],[[1472]],[[1473]],[[1474]],[[1475]],[[1476]],[[1477]],[[1478]],[[1479]],[[1480]],[[1481]]],"properties":{"FIPS":"FP","ISO2":"PF","ISO3":"PYF","UN":258,"NAME":"French Polynesia","AREA":366,"POP2005":255632,"REGION":9,"SUBREGION":61,"LON":-149.462,"LAT":-17.626}},{"type":"MultiPolygon","id":"FRA","arcs":[[[1482]],[[1483]],[[1484]],[[1485]],[[1486]],[[1487]],[[1488]],[[1489]],[[1490]],[[1491,1492,1493,1494,1495,1496,1497,1498,1499,1500,1501,1502]]],"properties":{"FIPS":"FR","ISO2":"FR","ISO3":"FRA","UN":250,"NAME":"France","AREA":55010,"POP2005":60990544,"REGION":150,"SUBREGION":155,"LON":2.55,"LAT":46.565}},{"type":"Polygon","id":"GMB","arcs":[[1503,1504]],"properties":{"FIPS":"GA","ISO2":"GM","ISO3":"GMB","UN":270,"NAME":"Gambia","AREA":1000,"POP2005":1617029,"REGION":2,"SUBREGION":11,"LON":-15.386,"LAT":13.453}},{"type":"MultiPolygon","id":"GAB","arcs":[[[1505]],[[1506]],[[-938,1507,-1319,-1172]]],"properties":{"FIPS":"GB","ISO2":"GA","ISO3":"GAB","UN":266,"NAME":"Gabon","AREA":25767,"POP2005":1290693,"REGION":2,"SUBREGION":17,"LON":11.797,"LAT":-0.591}},{"type":"Polygon","id":"GEO","arcs":[[1508,-18,-30,1509,1510]],"properties":{"FIPS":"GG","ISO2":"GE","ISO3":"GEO","UN":268,"NAME":"Georgia","AREA":6949,"POP2005":4473409,"REGION":142,"SUBREGION":145,"LON":43.518,"LAT":42.176}},{"type":"Polygon","id":"GHA","arcs":[[1511,1512,1513,1514,1515,1516]],"properties":{"FIPS":"GH","ISO2":"GH","ISO3":"GHA","UN":288,"NAME":"Ghana","AREA":22754,"POP2005":2253501,"REGION":2,"SUBREGION":11,"LON":-1.207,"LAT":7.96}},{"type":"MultiPolygon","id":"GRD","arcs":[[[1517]],[[1518]],[[1519]]],"properties":{"FIPS":"GJ","ISO2":"GD","ISO3":"GRD","UN":308,"NAME":"Grenada","AREA":34,"POP2005":105237,"REGION":19,"SUBREGION":29,"LON":-61.678,"LAT":12.118}},{"type":"MultiPolygon","id":"GRL","arcs":[[[1520]],[[1521]],[[1522]],[[1523]],[[1524]],[[1525]],[[1526]],[[1527]],[[1528]],[[1529]],[[1530]],[[1531]],[[1532]],[[1533]],[[1534]],[[1535]],[[1536]],[[1537]],[[1538]],[[1539]],[[1540]],[[1541]],[[1542]],[[1543]],[[1544]],[[1545]],[[1546]],[[1547]],[[1548]],[[1549]],[[1550]],[[1551]],[[1552]],[[1553]],[[1554]],[[1555]],[[1556]],[[1557]],[[1558]],[[1559]],[[1560]],[[1561]],[[1562]],[[1563]],[[1564]],[[1565]],[[1566]],[[1567]],[[1568]],[[1569]],[[1570]],[[1571]],[[1572]],[[1573]],[[1574]],[[1575]],[[1576]],[[1577]],[[1578]],[[1579]],[[1580]],[[1581]],[[1582]],[[1583]],[[1584]],[[1585]],[[1586]],[[1587]],[[1588]],[[1589]],[[1590]],[[1591]],[[1592]],[[1593]],[[1594]],[[1595]],[[1596]],[[1597]],[[1598]],[[1599]],[[1600]],[[1601]],[[1602]],[[1603]],[[1604]],[[1605]],[[1606]],[[1607]],[[1608]],[[1609]],[[1610]],[[1611]],[[1612]],[[1613]],[[1614]],[[1615]],[[1616]],[[1617]],[[1618]],[[1619]],[[1620]],[[1621]],[[1622]],[[1623]],[[1624]],[[1625]],[[1626]],[[1627]],[[1628]],[[1629]],[[1630]],[[1631]],[[1632]],[[1633]],[[1634]],[[1635]],[[1636]],[[1637]],[[1638]],[[1639]],[[1640]],[[1641]],[[1642]],[[1643]],[[1644]],[[1645]],[[1646]],[[1647]],[[1648]],[[1649]],[[1650]],[[1651]],[[1652]],[[1653]],[[1654]],[[1655]],[[1656]],[[1657]],[[1658]],[[1659]],[[1660]],[[1661]],[[1662]],[[1663]],[[1664]],[[1665]],[[1666]],[[1667]],[[1668]],[[1669]],[[1670]],[[1671]],[[1672]],[[1673]],[[1674]],[[1675]],[[1676]],[[1677]],[[1678]],[[1679]],[[1680]],[[1681]],[[1682]],[[1683]],[[1684]],[[1685]],[[1686]],[[1687]],[[1688]],[[1689]],[[1690]],[[1691]],[[1692]],[[1693]],[[1694]],[[1695]],[[1696]],[[1697]],[[1698]],[[1699]],[[1700]],[[1701]],[[1702]],[[1703]],[[1704]],[[1705]],[[1706]],[[1707]],[[1708]],[[1709]],[[1710]],[[1711]],[[1712]],[[1713]],[[1714]],[[1715]],[[1716]]],"properties":{"FIPS":"GL","ISO2":"GL","ISO3":"GRL","UN":304,"NAME":"Greenland","AREA":41045,"POP2005":57475,"REGION":19,"SUBREGION":21,"LON":-41.391,"LAT":74.719}},{"type":"MultiPolygon","id":"DEU","arcs":[[[1717]],[[1718]],[[1719]],[[1720]],[[1721]],[[1722]],[[1723]],[[1724]],[[1725]],[[1726]],[[1727]],[[1728]],[[1729,1730]],[[1731]],[[1732]],[[1733]],[[1734]],[[1735]],[[1736]],[[1737]],[[1738]],[[1739]],[[1740,-1351,-1349,1741,-1493,1742,1743,1744,1745,-1273,1746,1747]]],"properties":{"FIPS":"GM","ISO2":"DE","ISO3":"DEU","UN":276,"NAME":"Germany","AREA":34895,"POP2005":82652369,"REGION":150,"SUBREGION":155,"LON":9.851,"LAT":51.11}},{"type":"Polygon","id":"GUM","arcs":[[1748]],"properties":{"FIPS":"GQ","ISO2":"GU","ISO3":"GUM","UN":316,"NAME":"Guam","AREA":55,"POP2005":16857,"REGION":9,"SUBREGION":57,"LON":144.707,"LAT":13.385}},{"type":"MultiPolygon","id":"GRC","arcs":[[[1749]],[[1750]],[[1751]],[[1752]],[[1753]],[[1754]],[[1755]],[[1756]],[[1757]],[[1758]],[[1759]],[[1760]],[[1761]],[[1762]],[[1763]],[[1764]],[[1765]],[[1766]],[[1767]],[[1768]],[[1769]],[[1770]],[[1771]],[[1772]],[[1773]],[[1774]],[[1775]],[[1776]],[[1777]],[[1778]],[[1779]],[[1780]],[[1781]],[[1782]],[[1783]],[[1784]],[[1785]],[[1786]],[[1787]],[[1788]],[[1789]],[[1790]],[[1791]],[[1792]],[[1793]],[[1794]],[[1795]],[[1796]],[[1797]],[[1798]],[[1799]],[[1800]],[[1801]],[[1802]],[[1803]],[[1804]],[[1805]],[[1806]],[[1807]],[[1808]],[[1809]],[[1810]],[[1811]],[[1812]],[[1813]],[[1814]],[[1815]],[[1816,1817,-25,1818,-427,1819,-425]]],"properties":{"FIPS":"GR","ISO2":"GR","ISO3":"GRC","UN":300,"NAME":"Greece","AREA":12890,"POP2005":11099737,"REGION":150,"SUBREGION":39,"LON":21.766,"LAT":39.666}},{"type":"Polygon","id":"GTM","arcs":[[1820,1821,1822,-237,1823,1824,-1336,1825]],"properties":{"FIPS":"GT","ISO2":"GT","ISO3":"GTM","UN":320,"NAME":"Guatemala","AREA":10843,"POP2005":12709564,"REGION":19,"SUBREGION":13,"LON":-90.398,"LAT":15.256}},{"type":"Polygon","id":"GIN","arcs":[[1826,1827,1828,1829,1830,1831,1832]],"properties":{"FIPS":"GV","ISO2":"GN","ISO3":"GIN","UN":324,"NAME":"Guinea","AREA":24572,"POP2005":9002656,"REGION":2,"SUBREGION":11,"LON":-10.942,"LAT":10.439}},{"type":"MultiPolygon","id":"GUY","arcs":[[[1833]],[[1834,-423,1835,1836]]],"properties":{"FIPS":"GY","ISO2":"GY","ISO3":"GUY","UN":328,"NAME":"Guyana","AREA":19685,"POP2005":739472,"REGION":19,"SUBREGION":5,"LON":-58.974,"LAT":4.792}},{"type":"MultiPolygon","id":"HTI","arcs":[[[1837]],[[1838]],[[1839]],[[-1284,1840]],[[1841]]],"properties":{"FIPS":"HA","ISO2":"HT","ISO3":"HTI","UN":332,"NAME":"Haiti","AREA":2756,"POP2005":9296291,"REGION":19,"SUBREGION":29,"LON":-72.278,"LAT":19.142}},{"type":"MultiPolygon","id":"HND","arcs":[[[1842]],[[1843]],[[1844,1845,-1337,-1825,1846]],[[1847]],[[1848]],[[1849]],[[1850]],[[1851]]],"properties":{"FIPS":"HO","ISO2":"HN","ISO3":"HND","UN":340,"NAME":"Honduras","AREA":11189,"POP2005":683411,"REGION":19,"SUBREGION":13,"LON":-86.863,"LAT":14.819}},{"type":"MultiPolygon","id":"HRV","arcs":[[[1852]],[[1853]],[[1854]],[[-242,1855,1856]],[[1857]],[[1858]],[[1859]],[[1860]],[[1861]],[[1862]],[[1863]],[[1864]],[[1865]],[[1866]],[[1867]],[[1868]],[[1869]],[[1870]],[[1871,1872,-244,1873,1874]]],"properties":{"FIPS":"HR","ISO2":"HR","ISO3":"HRV","UN":191,"NAME":"Croatia","AREA":5592,"POP2005":455149,"REGION":150,"SUBREGION":39,"LON":16.693,"LAT":45.723}},{"type":"Polygon","id":"HUN","arcs":[[1875,-1343,1876,1877,1878,1879,-1872]],"properties":{"FIPS":"HU","ISO2":"HU","ISO3":"HUN","UN":348,"NAME":"Hungary","AREA":9210,"POP2005":10086387,"REGION":150,"SUBREGION":151,"LON":19.134,"LAT":47.07}},{"type":"Polygon","id":"ISL","arcs":[[1880]],"properties":{"FIPS":"IC","ISO2":"IS","ISO3":"ISL","UN":352,"NAME":"Iceland","AREA":10025,"POP2005":295732,"REGION":150,"SUBREGION":154,"LON":-18.48,"LAT":64.764}},{"type":"MultiPolygon","id":"IND","arcs":[[[1881]],[[1882]],[[1883]],[[1884]],[[1885]],[[1886]],[[1887]],[[1888]],[[1889]],[[1890]],[[1891]],[[1892]],[[1893]],[[1894]],[[1895]],[[1896]],[[1897]],[[1898]],[[1899]],[[1900]],[[1901]],[[1902]],[[1903]],[[1904]],[[1905]],[[1906]],[[1907]],[[1908]],[[1909]],[[1910]],[[1911]],[[1912]],[[1913]],[[1914]],[[1915]],[[1916]],[[1917]],[[1918]],[[1919]],[[1920]],[[1921]],[[1922]],[[1923]],[[1924]],[[1925]],[[1926,-997,-1015,-995,-295,-230,1927,1928,-999]]],"properties":{"FIPS":"IN","ISO2":"IN","ISO3":"IND","UN":356,"NAME":"India","AREA":297319,"POP2005":1134403141,"REGION":142,"SUBREGION":34,"LON":78.5,"LAT":21}},{"type":"MultiPolygon","id":"IRN","arcs":[[[1929]],[[1930]],[[1931]],[[1932]],[[1933]],[[1934]],[[1935]],[[-28,-16,1936,1937,-1011,1938,1939,1940,1941,1942,1943,-11]]],"properties":{"FIPS":"IR","ISO2":"IR","ISO3":"IRN","UN":364,"NAME":"Iran (Islamic Republic of)","AREA":163620,"POP2005":69420607,"REGION":142,"SUBREGION":34,"LON":54.301,"LAT":32.565}},{"type":"MultiPolygon","id":"ISR","arcs":[[[1944]],[[1945,1946,1947,1948,-1307,1949,1950,1951,1952]]],"properties":{"FIPS":"IS","ISO2":"IL","ISO3":"ISR","UN":376,"NAME":"Israel","AREA":2171,"POP2005":6692037,"REGION":142,"SUBREGION":145,"LON":34.851,"LAT":31.026}},{"type":"MultiPolygon","id":"ITA","arcs":[[[1953,1954,-1495,1955,-1345],[1956],[1957]],[[1958]],[[1959]],[[1960]],[[1961]],[[1962]],[[1963]],[[1964]],[[1965]],[[1966]],[[1967]],[[1968]],[[1969]],[[1970]],[[1971]],[[1972]],[[1973]],[[1974]],[[1975]],[[1976]],[[1977]],[[1978]]],"properties":{"FIPS":"IT","ISO2":"IT","ISO3":"ITA","UN":380,"NAME":"Italy","AREA":29411,"POP2005":5864636,"REGION":150,"SUBREGION":39,"LON":12.8,"LAT":42.7}},{"type":"MultiPolygon","id":"CIV","arcs":[[[-1512,1979]],[[1980]],[[1981,-1830,1982,1983,-1514,1984,1985]]],"properties":{"FIPS":"IV","ISO2":"CI","ISO3":"CIV","UN":384,"NAME":"Cote d'Ivoire","AREA":31800,"POP2005":18584701,"REGION":2,"SUBREGION":11,"LON":-5.556,"LAT":7.632}},{"type":"Polygon","id":"IRQ","arcs":[[1986,1987,1988,1989,1990,-1943,1991,-1941,1992]],"properties":{"FIPS":"IZ","ISO2":"IQ","ISO3":"IRQ","UN":368,"NAME":"Iraq","AREA":43737,"POP2005":27995984,"REGION":142,"SUBREGION":145,"LON":43.772,"LAT":33.048}},{"type":"MultiPolygon","id":"JPN","arcs":[[[1993]],[[1994]],[[1995]],[[1996]],[[1997]],[[1998]],[[1999]],[[2000]],[[2001]],[[2002]],[[2003]],[[2004]],[[2005]],[[2006]],[[2007]],[[2008]],[[2009]],[[2010]],[[2011]],[[2012]],[[2013]],[[2014]],[[2015]],[[2016]],[[2017]],[[2018]],[[2019]],[[2020]],[[2021]],[[2022]],[[2023]],[[2024]],[[2025]],[[2026]],[[2027]],[[2028]],[[2029]],[[2030]],[[2031]],[[2032]],[[2033]],[[2034]],[[2035]],[[2036]],[[2037]],[[2038]],[[2039]],[[2040]],[[2041]],[[2042]],[[2043]],[[2044]],[[2045]],[[2046]],[[2047]],[[2048]],[[2049]],[[2050]],[[2051]],[[2052]],[[2053]],[[2054]],[[2055]],[[2056]],[[2057]],[[2058]],[[2059]]],"properties":{"FIPS":"JA","ISO2":"JP","ISO3":"JPN","UN":392,"NAME":"Japan","AREA":36450,"POP2005":127896740,"REGION":142,"SUBREGION":30,"LON":139.068,"LAT":36.491}},{"type":"Polygon","id":"JAM","arcs":[[2060]],"properties":{"FIPS":"JM","ISO2":"JM","ISO3":"JAM","UN":388,"NAME":"Jamaica","AREA":1083,"POP2005":2682469,"REGION":19,"SUBREGION":29,"LON":-77.32,"LAT":18.151}},{"type":"Polygon","id":"JOR","arcs":[[-1948,2061,-1946,2062,-1989,2063,2064]],"properties":{"FIPS":"JO","ISO2":"JO","ISO3":"JOR","UN":400,"NAME":"Jordan","AREA":8824,"POP2005":5544066,"REGION":142,"SUBREGION":145,"LON":36.319,"LAT":30.703}},{"type":"MultiPolygon","id":"KEN","arcs":[[[2065]],[[2066,2067,2068,2069,2070,-1340]]],"properties":{"FIPS":"KE","ISO2":"KE","ISO3":"KEN","UN":404,"NAME":"Kenya","AREA":56914,"POP2005":35598952,"REGION":2,"SUBREGION":14,"LON":37.858,"LAT":0.53}},{"type":"Polygon","id":"KGZ","arcs":[[-1003,2071,2072,2073,2074,2075,-1005,2076]],"properties":{"FIPS":"KG","ISO2":"KG","ISO3":"KGZ","UN":417,"NAME":"Kyrgyzstan","AREA":19180,"POP2005":5203547,"REGION":142,"SUBREGION":143,"LON":74.555,"LAT":41.465}},{"type":"MultiPolygon","id":"PRK","arcs":[[[2077]],[[2078,2079,-987,2080,2081]]],"properties":{"FIPS":"KN","ISO2":"KP","ISO3":"PRK","UN":408,"NAME":"Korea, Democratic People's Republic of","AREA":12041,"POP2005":23615611,"REGION":142,"SUBREGION":30,"LON":126.451,"LAT":39.778}},{"type":"MultiPolygon","id":"KIR","arcs":[[[2082]],[[2083]],[[2084]],[[2085]],[[2086]],[[2087]],[[2088]],[[2089]],[[2090]],[[2091]],[[2092]],[[2093]],[[2094]],[[2095]],[[2096]],[[2097]],[[2098]],[[2099]],[[2100]],[[2101]],[[2102]],[[2103]],[[2104]],[[2105]],[[2106]],[[2107]],[[2108]],[[2109]],[[2110]],[[2111]],[[2112]],[[2113]],[[2114]],[[2115]],[[2116]],[[2117]],[[2118]],[[2119]],[[2120]],[[2121]],[[2122]],[[2123]]],"properties":{"FIPS":"KR","ISO2":"KI","ISO3":"KIR","UN":296,"NAME":"Kiribati","AREA":73,"POP2005":92003,"REGION":9,"SUBREGION":57,"LON":175.036,"LAT":-1.508}},{"type":"MultiPolygon","id":"KOR","arcs":[[[2124]],[[2125]],[[2126]],[[2127]],[[2128]],[[2129]],[[2130]],[[2131]],[[2132]],[[2133]],[[2134]],[[2135]],[[2136]],[[2137]],[[2138]],[[2139]],[[2140]],[[2141]],[[-2079,2142]]],"properties":{"FIPS":"KS","ISO2":"KR","ISO3":"KOR","UN":410,"NAME":"Korea, Republic of","AREA":9873,"POP2005":47869837,"REGION":142,"SUBREGION":30,"LON":128.103,"LAT":36.504}},{"type":"MultiPolygon","id":"KWT","arcs":[[[2143]],[[2144]],[[2145]],[[2146,-1987,2147]]],"properties":{"FIPS":"KU","ISO2":"KW","ISO3":"KWT","UN":414,"NAME":"Kuwait","AREA":1782,"POP2005":2700,"REGION":142,"SUBREGION":145,"LON":47.376,"LAT":29.476}},{"type":"MultiPolygon","id":"KAZ","arcs":[[[2148]],[[2149]],[[2150]],[[-1006,-2076,2151,-2074,2152,2153,2154,2155]]],"properties":{"FIPS":"KZ","ISO2":"KZ","ISO3":"KAZ","UN":398,"NAME":"Kazakhstan","AREA":269970,"POP2005":15210609,"REGION":142,"SUBREGION":143,"LON":67.301,"LAT":48.16}},{"type":"Polygon","id":"LAO","arcs":[[2156,-292,-994,2157,-929]],"properties":{"FIPS":"LA","ISO2":"LA","ISO3":"LAO","UN":418,"NAME":"Lao People's Democratic Republic","AREA":23080,"POP2005":566391,"REGION":142,"SUBREGION":35,"LON":102.471,"LAT":19.905}},{"type":"Polygon","id":"LBN","arcs":[[2158,-1952,2159]],"properties":{"FIPS":"LE","ISO2":"LB","ISO3":"LBN","UN":422,"NAME":"Lebanon","AREA":1023,"POP2005":401074,"REGION":142,"SUBREGION":145,"LON":35.888,"LAT":33.92}},{"type":"Polygon","id":"LVA","arcs":[[-1328,2160,2161,2162,2163]],"properties":{"FIPS":"LG","ISO2":"LV","ISO3":"LVA","UN":428,"NAME":"Latvia","AREA":6205,"POP2005":2301793,"REGION":150,"SUBREGION":154,"LON":25.641,"LAT":56.858}},{"type":"Polygon","id":"BLR","arcs":[[2164,2165,2166,2167,-2162]],"properties":{"FIPS":"BO","ISO2":"BY","ISO3":"BLR","UN":112,"NAME":"Belarus","AREA":20748,"POP2005":9795287,"REGION":150,"SUBREGION":151,"LON":28.047,"LAT":53.54}},{"type":"MultiPolygon","id":"LTU","arcs":[[[2168,2169]],[[-2168,2170,2171,2172,-2163]]],"properties":{"FIPS":"LH","ISO2":"LT","ISO3":"LTU","UN":440,"NAME":"Lithuania","AREA":6268,"POP2005":3425077,"REGION":150,"SUBREGION":154,"LON":23.897,"LAT":55.336}},{"type":"Polygon","id":"LBR","arcs":[[2173,-1831,-1982,2174]],"properties":{"FIPS":"LI","ISO2":"LR","ISO3":"LBR","UN":430,"NAME":"Liberia","AREA":9632,"POP2005":3441796,"REGION":2,"SUBREGION":11,"LON":-9.657,"LAT":6.682}},{"type":"Polygon","id":"SVK","arcs":[[-1342,-1353,2175,2176,-1877]],"properties":{"FIPS":"LO","ISO2":"SK","ISO3":"SVK","UN":703,"NAME":"Slovakia","AREA":4808,"POP2005":5386995,"REGION":150,"SUBREGION":151,"LON":19.491,"LAT":48.707}},{"type":"Polygon","id":"LIE","arcs":[[2177,-1347]],"properties":{"FIPS":"LS","ISO2":"LI","ISO3":"LIE","UN":438,"NAME":"Liechtenstein","AREA":16,"POP2005":34598,"REGION":150,"SUBREGION":155,"LON":9.555,"LAT":47.153}},{"type":"Polygon","id":"LBY","arcs":[[2178,2179,-1310,2180,-1179,2181,-4]],"properties":{"FIPS":"LY","ISO2":"LY","ISO3":"LBY","UN":434,"NAME":"Libyan Arab Jamahiriya","AREA":175954,"POP2005":5918217,"REGION":2,"SUBREGION":15,"LON":18.023,"LAT":27.044}},{"type":"MultiPolygon","id":"MDG","arcs":[[[2182]],[[2183]],[[2184]],[[2185]],[[2186]]],"properties":{"FIPS":"MA","ISO2":"MG","ISO3":"MDG","UN":450,"NAME":"Madagascar","AREA":58154,"POP2005":18642586,"REGION":2,"SUBREGION":14,"LON":46.706,"LAT":-19.374}},{"type":"Polygon","id":"MTQ","arcs":[[2187]],"properties":{"FIPS":"MB","ISO2":"MQ","ISO3":"MTQ","UN":474,"NAME":"Martinique","AREA":106,"POP2005":395896,"REGION":19,"SUBREGION":29,"LON":-61.021,"LAT":14.653}},{"type":"Polygon","id":"MNG","arcs":[[2188,2189,2190,-1008]],"properties":{"FIPS":"MG","ISO2":"MN","ISO3":"MNG","UN":496,"NAME":"Mongolia","AREA":156650,"POP2005":2580704,"REGION":142,"SUBREGION":30,"LON":102.876,"LAT":46.056}},{"type":"Polygon","id":"MSR","arcs":[[2191]],"properties":{"FIPS":"MH","ISO2":"MS","ISO3":"MSR","UN":500,"NAME":"Montserrat","AREA":10,"POP2005":5628,"REGION":19,"SUBREGION":29,"LON":-62.187,"LAT":16.736}},{"type":"Polygon","id":"MKD","arcs":[[2192,-428,-1819,-24]],"properties":{"FIPS":"MK","ISO2":"MK","ISO3":"MKD","UN":807,"NAME":"The former Yugoslav Republic of Macedonia","AREA":2543,"POP2005":2033655,"REGION":150,"SUBREGION":39,"LON":21.698,"LAT":41.6}},{"type":"Polygon","id":"MLI","arcs":[[2193,2194,-6,2195,2196,-1983,-1829]],"properties":{"FIPS":"ML","ISO2":"ML","ISO3":"MLI","UN":466,"NAME":"Mali","AREA":122019,"POP2005":1161109,"REGION":2,"SUBREGION":11,"LON":-3.524,"LAT":17.35}},{"type":"Polygon","id":"MAR","arcs":[[2197,2198,2199,2200,-9,2201,2202]],"properties":{"FIPS":"MO","ISO2":"MA","ISO3":"MAR","UN":504,"NAME":"Morocco","AREA":44630,"POP2005":30494991,"REGION":2,"SUBREGION":15,"LON":-5.758,"LAT":32.706}},{"type":"MultiPolygon","id":"MUS","arcs":[[[2203]],[[2204]],[[2205]]],"properties":{"FIPS":"MP","ISO2":"MU","ISO3":"MUS","UN":480,"NAME":"Mauritius","AREA":203,"POP2005":1241173,"REGION":2,"SUBREGION":14,"LON":57.583,"LAT":-20.255}},{"type":"MultiPolygon","id":"MRT","arcs":[[[2206]],[[-2195,2207,2208,2209,-7]]],"properties":{"FIPS":"MR","ISO2":"MR","ISO3":"MRT","UN":478,"NAME":"Mauritania","AREA":102522,"POP2005":2963105,"REGION":2,"SUBREGION":11,"LON":-10.332,"LAT":20.26}},{"type":"MultiPolygon","id":"MLT","arcs":[[[2210]],[[2211]]],"properties":{"FIPS":"MT","ISO2":"MT","ISO3":"MLT","UN":470,"NAME":"Malta","AREA":32,"POP2005":402617,"REGION":150,"SUBREGION":39,"LON":14.442,"LAT":35.89}},{"type":"MultiPolygon","id":"OMN","arcs":[[[2212]],[[2213]],[[2214]],[[2215,2216,2217,2218]],[[2219,2220]]],"properties":{"FIPS":"MU","ISO2":"OM","ISO3":"OMN","UN":512,"NAME":"Oman","AREA":30950,"POP2005":2507042,"REGION":142,"SUBREGION":145,"LON":57.407,"LAT":21.656}},{"type":"MultiPolygon","id":"MDV","arcs":[[[2221]],[[2222]],[[2223]],[[2224]],[[2225]],[[2226]],[[2227]],[[2228]],[[2229]],[[2230]],[[2231]],[[2232]],[[2233]],[[2234]],[[2235]],[[2236]],[[2237]],[[2238]],[[2239]],[[2240]],[[2241]],[[2242]],[[2243]],[[2244]],[[2245]],[[2246]],[[2247]],[[2248]],[[2249]],[[2250]],[[2251]],[[2252]],[[2253]],[[2254]],[[2255]],[[2256]],[[2257]],[[2258]],[[2259]],[[2260]],[[2261]],[[2262]],[[2263]],[[2264]],[[2265]],[[2266]],[[2267]],[[2268]],[[2269]],[[2270]],[[2271]],[[2272]],[[2273]],[[2274]],[[2275]],[[2276]],[[2277]],[[2278]],[[2279]],[[2280]],[[2281]],[[2282]],[[2283]],[[2284]],[[2285]],[[2286]],[[2287]]],"properties":{"FIPS":"MV","ISO2":"MV","ISO3":"MDV","UN":462,"NAME":"Maldives","AREA":30,"POP2005":295297,"REGION":142,"SUBREGION":34,"LON":72.92,"LAT":3.548}},{"type":"MultiPolygon","id":"MEX","arcs":[[[2288]],[[2289]],[[2290]],[[2291]],[[2292]],[[2293]],[[2294]],[[2295]],[[2296]],[[2297]],[[2298]],[[2299]],[[2300]],[[2301]],[[2302]],[[2303]],[[2304]],[[2305]],[[2306]],[[2307]],[[2308]],[[2309]],[[2310]],[[2311]],[[2312]],[[2313]],[[2314]],[[2315]],[[2316]],[[2317]],[[2318]],[[2319]],[[2320]],[[2321]],[[-238,-1823,2322,-1821,2323,2324,2325]]],"properties":{"FIPS":"MX","ISO2":"MX","ISO3":"MEX","UN":484,"NAME":"Mexico","AREA":190869,"POP2005":104266392,"REGION":19,"SUBREGION":13,"LON":-102.535,"LAT":23.951}},{"type":"MultiPolygon","id":"MYS","arcs":[[[2326]],[[2327]],[[2328]],[[2329,2330]],[[2331]],[[2332]],[[2333]],[[2334]],[[2335]],[[2336]],[[2337]],[[2338]],[[2339]],[[2340]],[[2341,2342]],[[2343]],[[2344,2345,-434,2346,-432,2347]],[[2348]],[[2349]]],"properties":{"FIPS":"MY","ISO2":"MY","ISO3":"MYS","UN":458,"NAME":"Malaysia","AREA":32855,"POP2005":25652985,"REGION":142,"SUBREGION":35,"LON":102.195,"LAT":4.201}},{"type":"MultiPolygon","id":"MOZ","arcs":[[[2350]],[[2351]],[[2352]],[[2353,2354,2355,2356,2357,2358,2359,2360],[2361],[2362]]],"properties":{"FIPS":"MZ","ISO2":"MZ","ISO3":"MOZ","UN":508,"NAME":"Mozambique","AREA":78409,"POP2005":20532675,"REGION":2,"SUBREGION":14,"LON":37.923,"LAT":-14.422}},{"type":"MultiPolygon","id":"MWI","arcs":[[[2363]],[[2364]],[[-2359,2365,2366]]],"properties":{"FIPS":"MI","ISO2":"MW","ISO3":"MWI","UN":454,"NAME":"Malawi","AREA":9408,"POP2005":13226091,"REGION":2,"SUBREGION":14,"LON":33.808,"LAT":-13.4}},{"type":"MultiPolygon","id":"NCL","arcs":[[[2367]],[[2368]],[[2369]],[[2370]],[[2371]],[[2372]],[[2373]],[[2374]],[[2375]],[[2376]],[[2377]],[[2378]],[[2379]],[[2380]],[[2381]],[[2382]],[[2383]],[[2384]],[[2385]],[[2386]]],"properties":{"FIPS":"NC","ISO2":"NC","ISO3":"NCL","UN":540,"NAME":"New Caledonia","AREA":1828,"POP2005":234185,"REGION":9,"SUBREGION":54,"LON":165.447,"LAT":-21.359}},{"type":"Polygon","id":"NIU","arcs":[[2387]],"properties":{"FIPS":"NE","ISO2":"NU","ISO3":"NIU","UN":570,"NAME":"Niue","AREA":26,"POP2005":1632,"REGION":9,"SUBREGION":61,"LON":-169.869,"LAT":-19.052}},{"type":"Polygon","id":"NER","arcs":[[-5,-2182,-1178,2388,-299,2389,-2196]],"properties":{"FIPS":"NG","ISO2":"NE","ISO3":"NER","UN":562,"NAME":"Niger","AREA":126670,"POP2005":1326419,"REGION":2,"SUBREGION":11,"LON":9.398,"LAT":17.426}},{"type":"Polygon","id":"ABW","arcs":[[2390]],"properties":{"FIPS":"AA","ISO2":"AW","ISO3":"ABW","UN":533,"NAME":"Aruba","AREA":0,"POP2005":102897,"REGION":19,"SUBREGION":29,"LON":-69.977,"LAT":12.517}},{"type":"Polygon","id":"AIA","arcs":[[2391]],"properties":{"FIPS":"AV","ISO2":"AI","ISO3":"AIA","UN":660,"NAME":"Anguilla","AREA":0,"POP2005":12256,"REGION":19,"SUBREGION":29,"LON":-63.032,"LAT":18.237}},{"type":"Polygon","id":"BEL","arcs":[[2392,-1744,2393,-1503,2394,2395,2396]],"properties":{"FIPS":"BE","ISO2":"BE","ISO3":"BEL","UN":56,"NAME":"Belgium","AREA":0,"POP2005":10398049,"REGION":150,"SUBREGION":155,"LON":4.664,"LAT":50.643}},{"type":"MultiPolygon","id":"HKG","arcs":[[[2397]],[[2398]],[[2399]],[[-989,2400]]],"properties":{"FIPS":"HK","ISO2":"HK","ISO3":"HKG","UN":344,"NAME":"Hong Kong","AREA":0,"POP2005":7057418,"REGION":142,"SUBREGION":30,"LON":114.129,"LAT":22.423}},{"type":"MultiPolygon","id":"MNP","arcs":[[[2401]],[[2402]],[[2403]],[[2404]],[[2405]],[[2406]],[[2407]],[[2408]],[[2409]],[[2410]],[[2411]],[[2412]],[[2413]]],"properties":{"FIPS":"CQ","ISO2":"MP","ISO3":"MNP","UN":580,"NAME":"Northern Mariana Islands","AREA":0,"POP2005":80258,"REGION":9,"SUBREGION":57,"LON":145.623,"LAT":15.005}},{"type":"MultiPolygon","id":"FRO","arcs":[[[2414]],[[2415]],[[2416]],[[2417]],[[2418]],[[2419]],[[2420]],[[2421]],[[2422]]],"properties":{"FIPS":"FO","ISO2":"FO","ISO3":"FRO","UN":234,"NAME":"Faroe Islands","AREA":0,"POP2005":48205,"REGION":150,"SUBREGION":154,"LON":-6.864,"LAT":62.05}},{"type":"Polygon","id":"AND","arcs":[[2423,-1500]],"properties":{"FIPS":"AN","ISO2":"AD","ISO3":"AND","UN":20,"NAME":"Andorra","AREA":0,"POP2005":73483,"REGION":150,"SUBREGION":39,"LON":1.576,"LAT":42.549}},{"type":"Polygon","id":"GIB","arcs":[[2424,2425]],"properties":{"FIPS":"GI","ISO2":"GI","ISO3":"GIB","UN":292,"NAME":"Gibraltar","AREA":0,"POP2005":291,"REGION":150,"SUBREGION":39,"LON":-5.345,"LAT":36.138}},{"type":"Polygon","id":"IMN","arcs":[[2426]],"properties":{"FIPS":"IM","ISO2":"IM","ISO3":"IMN","UN":833,"NAME":"Isle of Man","AREA":0,"POP2005":78357,"REGION":150,"SUBREGION":154,"LON":-4.527,"LAT":54.229}},{"type":"Polygon","id":"LUX","arcs":[[-1743,-1492,-2394]],"properties":{"FIPS":"LU","ISO2":"LU","ISO3":"LUX","UN":442,"NAME":"Luxembourg","AREA":0,"POP2005":456613,"REGION":150,"SUBREGION":155,"LON":6.088,"LAT":49.771}},{"type":"Polygon","id":"MAC","arcs":[[-991,2427]],"properties":{"FIPS":"MC","ISO2":"MO","ISO3":"MAC","UN":446,"NAME":"Macau","AREA":0,"POP2005":47309,"REGION":142,"SUBREGION":30,"LON":113.545,"LAT":22.2}},{"type":"Polygon","id":"MCO","arcs":[[-1497,2428]],"properties":{"FIPS":"MN","ISO2":"MC","ISO3":"MCO","UN":492,"NAME":"Monaco","AREA":0,"POP2005":325,"REGION":150,"SUBREGION":155,"LON":7.412,"LAT":43.75}},{"type":"MultiPolygon","id":"PSE","arcs":[[[-1306,2429,-1950]],[[-2062,-1947],[2430]]],"properties":{"ISO2":"PS","ISO3":"PSE","UN":275,"NAME":"Palestine","AREA":0,"POP2005":3762005,"REGION":142,"SUBREGION":145,"LON":35.278,"LAT":32.037}},{"type":"Polygon","id":"MNE","arcs":[[2431,-22,2432,-1856,-241]],"properties":{"FIPS":"MJ","ISO2":"ME","ISO3":"MNE","UN":499,"NAME":"Montenegro","AREA":0,"POP2005":607969,"REGION":150,"SUBREGION":39,"LON":19.254,"LAT":42.792}},{"type":"MultiPolygon","id":"MYT","arcs":[[[2433]],[[2434]]],"properties":{"FIPS":"MF","ISO2":"YT","ISO3":"MYT","UN":175,"NAME":"Mayotte","AREA":0,"POP2005":0,"REGION":2,"SUBREGION":14,"LON":45.155,"LAT":-12.777}},{"type":"MultiPolygon","id":"ALA","arcs":[[[2435]],[[2436]],[[2437]],[[2438]],[[2439]]],"properties":{"ISO2":"AX","ISO3":"ALA","UN":248,"NAME":"Ã…land Islands","AREA":0,"POP2005":0,"REGION":150,"SUBREGION":154,"LON":19.952,"LAT":60.198}},{"type":"Polygon","id":"NFK","arcs":[[2440]],"properties":{"FIPS":"NF","ISO2":"NF","ISO3":"NFK","UN":574,"NAME":"Norfolk Island","AREA":0,"POP2005":0,"REGION":9,"SUBREGION":53,"LON":167.953,"LAT":-29.037}},{"type":"MultiPolygon","id":"CCK","arcs":[[[2441]],[[2442]]],"properties":{"FIPS":"CK","ISO2":"CC","ISO3":"CCK","UN":166,"NAME":"Cocos (Keeling) Islands","AREA":1,"POP2005":0,"REGION":0,"SUBREGION":0,"LON":96.839,"LAT":-12.173}},{"type":"MultiPolygon","id":"ATA","arcs":[[[2443]],[[2444]],[[2445]],[[2446]],[[2447]],[[2448]],[[2449]],[[2450]],[[2451]],[[2452]],[[2453]],[[2454]],[[2455]],[[2456]],[[2457]],[[2458]],[[2459]],[[2460]],[[2461]],[[2462]],[[2463]],[[2464]],[[2465]],[[2466]],[[2467]],[[2468]],[[2469]],[[2470]],[[2471]],[[2472]],[[2473]],[[2474]],[[2475]],[[2476]],[[2477]],[[2478]],[[2479]],[[2480]],[[2481]],[[2482]],[[2483]],[[2484]],[[2485]],[[2486]],[[2487]],[[2488]],[[2489]],[[2490]],[[2491]],[[2492]],[[2493]],[[2494]],[[2495]],[[2496]],[[2497]],[[2498]],[[2499]],[[2500]],[[2501]],[[2502]],[[2503]],[[2504]],[[2505]],[[2506]],[[2507]],[[2508]],[[2509]],[[2510]],[[2511]],[[2512]],[[2513]],[[2514]],[[2515]],[[2516]],[[2517]],[[2518]],[[2519]],[[2520]],[[2521]],[[2522]],[[2523]],[[2524]],[[2525]],[[2526]],[[2527]],[[2528]],[[2529]],[[2530]],[[2531]],[[2532]],[[2533]],[[2534]],[[2535]],[[2536]],[[2537]],[[2538]],[[2539]],[[2540]],[[2541]],[[2542]],[[2543]],[[2544]],[[2545]],[[2546]],[[2547]],[[2548]],[[2549]],[[2550]],[[2551]],[[2552]],[[2553]],[[2554]],[[2555]],[[2556]],[[2557]],[[2558]],[[2559]],[[2560]],[[2561]],[[2562]],[[2563]],[[2564]],[[2565]],[[2566]],[[2567]],[[2568]],[[2569]],[[2570]],[[2571]],[[2572]],[[2573]],[[2574]],[[2575]],[[2576]],[[2577]],[[2578]],[[2579]],[[2580]]],"properties":{"FIPS":"AY","ISO2":"AQ","ISO3":"ATA","UN":10,"NAME":"Antarctica","AREA":0,"POP2005":0,"REGION":0,"SUBREGION":0,"LON":21.304,"LAT":-80.446}},{"type":"Polygon","id":"BVT","arcs":[[2581]],"properties":{"FIPS":"BV","ISO2":"BV","ISO3":"BVT","UN":74,"NAME":"Bouvet Island","AREA":0,"POP2005":0,"REGION":0,"SUBREGION":0,"LON":3.412,"LAT":-54.422}},{"type":"MultiPolygon","id":"ATF","arcs":[[[2582]],[[2583]],[[2584]],[[2585]],[[2586]],[[2587]],[[2588]],[[2589]],[[2590]],[[2591]],[[2592]],[[2593]],[[2594]],[[2595]],[[2596]],[[2597]],[[2598]]],"properties":{"FIPS":"FS","ISO2":"TF","ISO3":"ATF","UN":260,"NAME":"French Southern and Antarctic Lands","AREA":0,"POP2005":0,"REGION":0,"SUBREGION":0,"LON":69.117,"LAT":-49.302}},{"type":"Polygon","id":"HMD","arcs":[[2599]],"properties":{"FIPS":"HM","ISO2":"HM","ISO3":"HMD","UN":334,"NAME":"Heard Island and McDonald Islands","AREA":0,"POP2005":0,"REGION":0,"SUBREGION":0,"LON":73.507,"LAT":-53.111}},{"type":"MultiPolygon","id":"IOT","arcs":[[[2600]],[[2601]],[[2602]],[[2603]],[[2604]],[[2605]],[[2606]],[[2607]],[[2608]]],"properties":{"FIPS":"IO","ISO2":"IO","ISO3":"IOT","UN":86,"NAME":"British Indian Ocean Territory","AREA":0,"POP2005":0,"REGION":0,"SUBREGION":0,"LON":72.416,"LAT":-7.335}},{"type":"Polygon","id":"CXR","arcs":[[2609]],"properties":{"FIPS":"KT","ISO2":"CX","ISO3":"CXR","UN":162,"NAME":"Christmas Island","AREA":0,"POP2005":0,"REGION":0,"SUBREGION":0,"LON":105.704,"LAT":-10.444}},{"type":"MultiPolygon","id":"UMI","arcs":[[[2610]],[[2611]],[[2612]],[[2613]],[[2614]],[[2615]],[[2616]]],"properties":{"ISO2":"UM","ISO3":"UMI","UN":581,"NAME":"United States Minor Outlying Islands","AREA":0,"POP2005":0,"REGION":0,"SUBREGION":0,"LON":-160.027,"LAT":-0.385}},{"type":"MultiPolygon","id":"VUT","arcs":[[[2617]],[[2618]],[[2619]],[[2620]],[[2621]],[[2622]],[[2623]],[[2624]],[[2625]],[[2626]],[[2627]],[[2628]],[[2629]],[[2630]],[[2631]],[[2632]],[[2633]],[[2634]],[[2635]],[[2636]],[[2637]],[[2638]],[[2639]],[[2640]],[[2641]],[[2642]],[[2643]]],"properties":{"FIPS":"NH","ISO2":"VU","ISO3":"VUT","UN":548,"NAME":"Vanuatu","AREA":1219,"POP2005":215366,"REGION":9,"SUBREGION":54,"LON":166.899,"LAT":-15.376}},{"type":"MultiPolygon","id":"NGA","arcs":[[[2644]],[[2645]],[[-1177,-1175,2646,-300,-2389]]],"properties":{"FIPS":"NI","ISO2":"NG","ISO3":"NGA","UN":566,"NAME":"Nigeria","AREA":91077,"POP2005":141356083,"REGION":2,"SUBREGION":11,"LON":8.105,"LAT":9.594}},{"type":"MultiPolygon","id":"NLD","arcs":[[[-2396,2647]],[[2648]],[[2649]],[[2650]],[[2651]],[[2652]],[[-1745,-2393,2653]],[[2654]],[[2655]]],"properties":{"FIPS":"NL","ISO2":"NL","ISO3":"NLD","UN":528,"NAME":"Netherlands","AREA":3388,"POP2005":1632769,"REGION":150,"SUBREGION":155,"LON":5.389,"LAT":52.077}},{"type":"MultiPolygon","id":"NOR","arcs":[[[2656]],[[2657]],[[2658]],[[2659]],[[2660]],[[2661]],[[2662]],[[2663]],[[2664]],[[2665]],[[2666]],[[2667]],[[2668]],[[2669]],[[2670]],[[2671]],[[2672]],[[2673]],[[2674]],[[2675]],[[2676]],[[2677]],[[2678]],[[2679]],[[2680]],[[2681]],[[2682]],[[2683]],[[2684]],[[2685]],[[2686]],[[2687]],[[2688]],[[2689]],[[2690]],[[2691]],[[2692]],[[2693]],[[2694]],[[2695]],[[2696]],[[2697]],[[2698]],[[2699]],[[2700]],[[2701]],[[2702]],[[2703]],[[2704]],[[2705]],[[2706]],[[2707]],[[2708]],[[2709]],[[2710]],[[2711]],[[2712]],[[2713]],[[2714]],[[2715]],[[2716]],[[2717]],[[2718]],[[2719]],[[2720]],[[2721]],[[2722]],[[2723]],[[2724]],[[2725]],[[2726]],[[2727]],[[2728]],[[2729]],[[2730]],[[2731]],[[2732]],[[2733]],[[2734]],[[2735]],[[2736]],[[2737]],[[2738]],[[2739]],[[2740]],[[2741]],[[2742]],[[2743]],[[2744]],[[2745]],[[2746]],[[2747]],[[2748,-1384,2749,2750]],[[2751]]],"properties":{"FIPS":"NO","ISO2":"NO","ISO3":"NOR","UN":578,"NAME":"Norway","AREA":30625,"POP2005":4638836,"REGION":150,"SUBREGION":154,"LON":8.74,"LAT":61.152}},{"type":"Polygon","id":"NPL","arcs":[[-998,-1927]],"properties":{"FIPS":"NP","ISO2":"NP","ISO3":"NPL","UN":524,"NAME":"Nepal","AREA":14300,"POP2005":27093656,"REGION":142,"SUBREGION":34,"LON":83.939,"LAT":28.253}},{"type":"Polygon","id":"NRU","arcs":[[2752]],"properties":{"FIPS":"NR","ISO2":"NR","ISO3":"NRU","UN":520,"NAME":"Nauru","AREA":2,"POP2005":10111,"REGION":9,"SUBREGION":57,"LON":166.93,"LAT":-0.522}},{"type":"Polygon","id":"SUR","arcs":[[-1354,-415,-1835,2753]],"properties":{"FIPS":"NS","ISO2":"SR","ISO3":"SUR","UN":740,"NAME":"Suriname","AREA":15600,"POP2005":452468,"REGION":19,"SUBREGION":5,"LON":-55.912,"LAT":4.127}},{"type":"MultiPolygon","id":"NIC","arcs":[[[2754]],[[2755]],[[2756]],[[2757]],[[-1204,2758,-1845,2759]]],"properties":{"FIPS":"NU","ISO2":"NI","ISO3":"NIC","UN":558,"NAME":"Nicaragua","AREA":12140,"POP2005":5462539,"REGION":19,"SUBREGION":13,"LON":-85.034,"LAT":12.84}},{"type":"MultiPolygon","id":"NZL","arcs":[[[2760]],[[2761]],[[2762]],[[2763]],[[2764]],[[2765]],[[2766]],[[2767]],[[2768]],[[2769]],[[2770]],[[2771]],[[2772]],[[2773]],[[2774]],[[2775]],[[2776]],[[2777]],[[2778]],[[2779]],[[2780]],[[2781]],[[2782]],[[2783]],[[2784]],[[2785]],[[2786]],[[2787]],[[2788]]],"properties":{"FIPS":"NZ","ISO2":"NZ","ISO3":"NZL","UN":554,"NAME":"New Zealand","AREA":26799,"POP2005":4097112,"REGION":9,"SUBREGION":53,"LON":172.235,"LAT":-42.634}},{"type":"Polygon","id":"PRY","arcs":[[-53,-248,-419]],"properties":{"FIPS":"PA","ISO2":"PY","ISO3":"PRY","UN":600,"NAME":"Paraguay","AREA":39730,"POP2005":5904342,"REGION":19,"SUBREGION":5,"LON":-58.391,"LAT":-23.236}},{"type":"Polygon","id":"PER","arcs":[[-1194,-420,-246,-1165,2789,-1299]],"properties":{"FIPS":"PE","ISO2":"PE","ISO3":"PER","UN":604,"NAME":"Peru","AREA":128000,"POP2005":27274266,"REGION":19,"SUBREGION":5,"LON":-75.552,"LAT":-9.326}},{"type":"MultiPolygon","id":"PAK","arcs":[[[2790]],[[-1929,2791,-1939,-1010,-1000]]],"properties":{"FIPS":"PK","ISO2":"PK","ISO3":"PAK","UN":586,"NAME":"Pakistan","AREA":77088,"POP2005":158080591,"REGION":142,"SUBREGION":34,"LON":69.386,"LAT":29.967}},{"type":"Polygon","id":"POL","arcs":[[-1741,2792,-1730,2793,2794,2795,2796,-2171,-2167,2797,-2176,-1352]],"properties":{"FIPS":"PL","ISO2":"PL","ISO3":"POL","UN":616,"NAME":"Poland","AREA":30629,"POP2005":38195558,"REGION":150,"SUBREGION":151,"LON":19.401,"LAT":52.125}},{"type":"MultiPolygon","id":"PAN","arcs":[[[2798]],[[2799]],[[2800]],[[2801]],[[2802]],[[2803]],[[2804]],[[2805]],[[2806]],[[2807]],[[2808]],[[2809]],[[2810]],[[2811]],[[2812]],[[2813]],[[-1197,2814,-1202,2815]]],"properties":{"FIPS":"PM","ISO2":"PA","ISO3":"PAN","UN":591,"NAME":"Panama","AREA":7443,"POP2005":3231502,"REGION":19,"SUBREGION":13,"LON":-80.92,"LAT":8.384}},{"type":"MultiPolygon","id":"PRT","arcs":[[[2816]],[[2817]],[[2818]],[[2819]],[[2820]],[[2821]],[[2822]],[[2823,2824]]],"properties":{"FIPS":"PO","ISO2":"PT","ISO3":"PRT","UN":620,"NAME":"Portugal","AREA":9150,"POP2005":10528226,"REGION":150,"SUBREGION":39,"LON":-8.058,"LAT":40.309}},{"type":"MultiPolygon","id":"PNG","arcs":[[[2825]],[[2826]],[[2827]],[[2828]],[[2829]],[[2830]],[[2831]],[[2832]],[[2833]],[[2834]],[[2835]],[[2836]],[[2837]],[[2838]],[[2839]],[[2840]],[[2841]],[[2842]],[[2843]],[[2844]],[[2845]],[[2846]],[[2847]],[[2848]],[[2849]],[[2850]],[[2851]],[[2852]],[[2853]],[[2854]],[[2855]],[[2856]],[[2857]],[[2858]],[[2859]],[[2860]],[[2861]],[[2862]],[[2863]],[[2864]],[[2865]],[[2866]],[[2867]],[[2868,2869]],[[2870]],[[2871]],[[2872]],[[2873]],[[2874]],[[2875]],[[2876]],[[2877]]],"properties":{"FIPS":"PP","ISO2":"PG","ISO3":"PNG","UN":598,"NAME":"Papua New Guinea","AREA":45286,"POP2005":6069715,"REGION":9,"SUBREGION":54,"LON":143.459,"LAT":-5.949}},{"type":"MultiPolygon","id":"GNB","arcs":[[[2878]],[[2879]],[[2880]],[[2881]],[[2882]],[[2883]],[[2884]],[[2885]],[[2886]],[[2887]],[[2888]],[[2889]],[[2890]],[[-1827,2891,2892]]],"properties":{"FIPS":"PU","ISO2":"GW","ISO3":"GNB","UN":624,"NAME":"Guinea-Bissau","AREA":2812,"POP2005":1596929,"REGION":2,"SUBREGION":11,"LON":-14.651,"LAT":12.125}},{"type":"Polygon","id":"QAT","arcs":[[2893,2894]],"properties":{"FIPS":"QA","ISO2":"QA","ISO3":"QAT","UN":634,"NAME":"Qatar","AREA":1100,"POP2005":796186,"REGION":142,"SUBREGION":145,"LON":51.191,"LAT":25.316}},{"type":"Polygon","id":"REU","arcs":[[2895]],"properties":{"FIPS":"RE","ISO2":"RE","ISO3":"REU","UN":638,"NAME":"Reunion","AREA":250,"POP2005":785159,"REGION":2,"SUBREGION":14,"LON":55.538,"LAT":-21.122}},{"type":"Polygon","id":"ROU","arcs":[[2896,2897,2898,2899,-430,2900,-1879]],"properties":{"FIPS":"RO","ISO2":"RO","ISO3":"ROU","UN":642,"NAME":"Romania","AREA":22987,"POP2005":21627557,"REGION":150,"SUBREGION":151,"LON":24.969,"LAT":45.844}},{"type":"Polygon","id":"MDA","arcs":[[2901,-2898]],"properties":{"FIPS":"MD","ISO2":"MD","ISO3":"MDA","UN":498,"NAME":"Republic of Moldova","AREA":3288,"POP2005":3876661,"REGION":150,"SUBREGION":151,"LON":28.599,"LAT":47.193}},{"type":"MultiPolygon","id":"PHL","arcs":[[[2902]],[[2903]],[[2904]],[[2905]],[[2906]],[[2907]],[[2908]],[[2909]],[[2910]],[[2911]],[[2912]],[[2913]],[[2914]],[[2915]],[[2916]],[[2917]],[[2918]],[[2919]],[[2920]],[[2921]],[[2922]],[[2923]],[[2924]],[[2925]],[[2926]],[[2927]],[[2928]],[[2929]],[[2930]],[[2931]],[[2932]],[[2933]],[[2934]],[[2935]],[[2936]],[[2937]],[[2938]],[[2939]],[[2940]],[[2941]],[[2942]],[[2943]],[[2944]],[[2945]],[[2946]],[[2947]],[[2948]],[[2949]],[[2950]],[[2951]],[[2952]],[[2953]],[[2954]],[[2955]],[[2956]],[[2957]],[[2958]],[[2959]],[[2960]],[[2961]],[[2962]],[[2963]],[[2964]],[[2965]],[[2966]],[[2967]],[[2968]],[[2969]],[[2970]],[[2971]],[[2972]],[[2973]],[[2974]],[[2975]],[[2976]],[[2977]],[[2978]],[[2979]],[[2980]],[[2981]],[[2982]],[[2983]],[[2984]],[[2985]],[[2986]],[[2987]]],"properties":{"FIPS":"RP","ISO2":"PH","ISO3":"PHL","UN":608,"NAME":"Philippines","AREA":29817,"POP2005":84566163,"REGION":142,"SUBREGION":35,"LON":122.466,"LAT":11.118}},{"type":"MultiPolygon","id":"PRI","arcs":[[[2988]],[[2989]],[[2990]],[[2991]]],"properties":{"FIPS":"RQ","ISO2":"PR","ISO3":"PRI","UN":630,"NAME":"Puerto Rico","AREA":887,"POP2005":3946779,"REGION":19,"SUBREGION":29,"LON":-66.466,"LAT":18.221}},{"type":"MultiPolygon","id":"RUS","arcs":[[[2992]],[[2993]],[[2994]],[[2995]],[[2996]],[[2997]],[[2998]],[[2999]],[[3000]],[[3001]],[[3002]],[[3003]],[[3004]],[[3005]],[[3006]],[[3007]],[[3008]],[[3009]],[[3010]],[[3011]],[[3012]],[[3013]],[[3014]],[[3015]],[[3016]],[[3017]],[[3018]],[[-2795,3019]],[[3020]],[[3021]],[[3022]],[[-2797,3023,-2169,3024,-2172]],[[3025]],[[3026]],[[3027]],[[3028]],[[3029]],[[3030]],[[3031]],[[3032]],[[3033]],[[3034]],[[3035]],[[3036]],[[3037]],[[3038]],[[3039]],[[3040]],[[3041]],[[3042]],[[3043]],[[3044]],[[3045]],[[3046]],[[3047]],[[3048]],[[3049]],[[3050]],[[3051]],[[3052]],[[3053]],[[3054]],[[3055]],[[3056]],[[3057]],[[3058]],[[3059]],[[3060]],[[3061]],[[3062]],[[3063]],[[3064]],[[3065]],[[3066]],[[3067]],[[3068]],[[3069]],[[3070]],[[3071]],[[3072]],[[3073]],[[3074]],[[3075]],[[3076]],[[3077]],[[3078]],[[3079]],[[3080]],[[3081]],[[3082]],[[3083]],[[3084]],[[3085]],[[3086]],[[3087]],[[3088]],[[3089]],[[3090]],[[3091]],[[3092]],[[3093]],[[3094]],[[3095]],[[3096]],[[3097]],[[3098]],[[3099]],[[3100]],[[3101]],[[3102]],[[3103]],[[3104]],[[3105]],[[3106]],[[3107]],[[3108]],[[3109]],[[3110]],[[3111]],[[3112]],[[3113]],[[3114]],[[3115]],[[3116]],[[3117]],[[3118]],[[3119]],[[3120]],[[3121]],[[3122]],[[3123]],[[3124]],[[3125]],[[3126]],[[3127]],[[3128]],[[3129]],[[3130]],[[3131]],[[3132]],[[3133]],[[3134]],[[3135]],[[3136]],[[3137]],[[3138]],[[3139]],[[3140]],[[3141]],[[3142]],[[3143]],[[3144]],[[3145]],[[3146]],[[3147]],[[3148]],[[3149]],[[3150]],[[3151]],[[3152]],[[3153]],[[3154]],[[3155]],[[-2081,-1009,-2191,3156,-2189,-1007,-2156,3157,-19,-1509,3158,3159,-2165,-2161,-1327,3160,-1381,-2749,3161]],[[3162]],[[3163]],[[3164]],[[3165]],[[3166]],[[3167]],[[3168]],[[3169]],[[3170]],[[3171]],[[3172]],[[3173]],[[3174]],[[3175]],[[3176]],[[3177]],[[3178]],[[3179]],[[3180]],[[3181]],[[3182]],[[3183]],[[3184]],[[3185]],[[3186]],[[3187]],[[3188]],[[3189]],[[3190]],[[3191]],[[3192]],[[3193]],[[3194]],[[3195]],[[3196]],[[3197]],[[3198]],[[3199]],[[3200]],[[3201]],[[3202]],[[3203]],[[3204]],[[3205]],[[3206]],[[3207]],[[3208]],[[3209]],[[3210]],[[3211]],[[3212]],[[3213]],[[3214]],[[3215]],[[3216]],[[3217]],[[3218]],[[3219]],[[3220]],[[3221]],[[3222]],[[3223]],[[3224]],[[3225]]],"properties":{"FIPS":"RS","ISO2":"RU","ISO3":"RUS","UN":643,"NAME":"Russia","AREA":1638094,"POP2005":143953092,"REGION":150,"SUBREGION":151,"LON":96.689,"LAT":61.988}},{"type":"Polygon","id":"RWA","arcs":[[-946,3226,3227,-952]],"properties":{"FIPS":"RW","ISO2":"RW","ISO3":"RWA","UN":646,"NAME":"Rwanda","AREA":2467,"POP2005":9233793,"REGION":2,"SUBREGION":14,"LON":29.917,"LAT":-1.998}},{"type":"MultiPolygon","id":"SAU","arcs":[[[3228]],[[3229]],[[3230]],[[3231]],[[3232]],[[3233]],[[-2147,3234,-2894,3235,3236,-2217,3237,3238,-2064,-1988]]],"properties":{"FIPS":"SA","ISO2":"SA","ISO3":"SAU","UN":682,"NAME":"Saudi Arabia","AREA":214969,"POP2005":2361236,"REGION":142,"SUBREGION":145,"LON":44.585,"LAT":24.023}},{"type":"MultiPolygon","id":"KNA","arcs":[[[3239]],[[3240]]],"properties":{"FIPS":"SC","ISO2":"KN","ISO3":"KNA","UN":659,"NAME":"Saint Kitts and Nevis","AREA":36,"POP2005":49138,"REGION":19,"SUBREGION":29,"LON":-62.769,"LAT":17.34}},{"type":"MultiPolygon","id":"SYC","arcs":[[[3241]],[[3242]],[[3243]],[[3244]],[[3245]],[[3246]],[[3247]]],"properties":{"FIPS":"SE","ISO2":"SC","ISO3":"SYC","UN":690,"NAME":"Seychelles","AREA":46,"POP2005":85532,"REGION":2,"SUBREGION":14,"LON":55.474,"LAT":-4.647}},{"type":"MultiPolygon","id":"ZAF","arcs":[[[3248]],[[3249]],[[-2356,3250,-2354,3251,3252,3253,3254,3255,3256],[3257,3258]]],"properties":{"FIPS":"SF","ISO2":"ZA","ISO3":"ZAF","UN":710,"NAME":"South Africa","AREA":121447,"POP2005":47938663,"REGION":2,"SUBREGION":18,"LON":23.121,"LAT":-30.558}},{"type":"Polygon","id":"LSO","arcs":[[-3258,3259]],"properties":{"FIPS":"LT","ISO2":"LS","ISO3":"LSO","UN":426,"NAME":"Lesotho","AREA":3035,"POP2005":1980831,"REGION":2,"SUBREGION":18,"LON":28.243,"LAT":-29.581}},{"type":"Polygon","id":"BWA","arcs":[[-3254,3260,3261,-3256,3262]],"properties":{"FIPS":"BC","ISO2":"BW","ISO3":"BWA","UN":72,"NAME":"Botswana","AREA":56673,"POP2005":1835938,"REGION":2,"SUBREGION":18,"LON":23.815,"LAT":-22.182}},{"type":"Polygon","id":"SEN","arcs":[[-2208,-2194,-1828,-2893,3263,-1504,3264]],"properties":{"FIPS":"SG","ISO2":"SN","ISO3":"SEN","UN":686,"NAME":"Senegal","AREA":19253,"POP2005":1177034,"REGION":2,"SUBREGION":11,"LON":-14.881,"LAT":15.013}},{"type":"Polygon","id":"SVN","arcs":[[-1876,-1875,3265,-1954,-1344]],"properties":{"FIPS":"SI","ISO2":"SI","ISO3":"SVN","UN":705,"NAME":"Slovenia","AREA":2014,"POP2005":1999425,"REGION":150,"SUBREGION":39,"LON":14.827,"LAT":46.124}},{"type":"MultiPolygon","id":"SLE","arcs":[[[3266]],[[-2174,3267,-1832]]],"properties":{"FIPS":"SL","ISO2":"SL","ISO3":"SLE","UN":694,"NAME":"Sierra Leone","AREA":7162,"POP2005":5586403,"REGION":2,"SUBREGION":11,"LON":-11.792,"LAT":8.56}},{"type":"Polygon","id":"SGP","arcs":[[3268]],"properties":{"FIPS":"SN","ISO2":"SG","ISO3":"SGP","UN":702,"NAME":"Singapore","AREA":67,"POP2005":4327468,"REGION":142,"SUBREGION":35,"LON":103.808,"LAT":1.351}},{"type":"Polygon","id":"SOM","arcs":[[-2067,-1339,-1277,3269]],"properties":{"FIPS":"SO","ISO2":"SO","ISO3":"SOM","UN":706,"NAME":"Somalia","AREA":62734,"POP2005":8196395,"REGION":2,"SUBREGION":14,"LON":48.316,"LAT":9.774}},{"type":"MultiPolygon","id":"ESP","arcs":[[[3270]],[[3271]],[[3272]],[[3273]],[[3274]],[[3275]],[[3276]],[[-2200,3277]],[[-2198,3278]],[[3279]],[[3280]],[[3281]],[[3282]],[[3283]],[[3284]],[[-1501,-2424,-1499,3285,-2425,3286,-2824,3287]]],"properties":{"FIPS":"SP","ISO2":"ES","ISO3":"ESP","UN":724,"NAME":"Spain","AREA":49904,"POP2005":43397491,"REGION":150,"SUBREGION":39,"LON":-3.649,"LAT":40.227}},{"type":"Polygon","id":"LCA","arcs":[[3288]],"properties":{"FIPS":"ST","ISO2":"LC","ISO3":"LCA","UN":662,"NAME":"Saint Lucia","AREA":61,"POP2005":16124,"REGION":19,"SUBREGION":29,"LON":-60.969,"LAT":13.898}},{"type":"MultiPolygon","id":"SDN","arcs":[[[3289]],[[-1333,-1341,-2071,3290,-944,-1206,-1180,-2181,-1309,3291]]],"properties":{"FIPS":"SU","ISO2":"SD","ISO3":"SDN","UN":736,"NAME":"Sudan","AREA":237600,"POP2005":36899747,"REGION":2,"SUBREGION":15,"LON":30.05,"LAT":13.832}},{"type":"MultiPolygon","id":"SWE","arcs":[[[3292]],[[3293]],[[3294]],[[3295]],[[3296]],[[3297]],[[3298]],[[3299]],[[3300]],[[3301]],[[3302]],[[3303]],[[3304]],[[3305]],[[3306]],[[3307]],[[3308]],[[3309]],[[-2750,-1383,3310]]],"properties":{"FIPS":"SW","ISO2":"SE","ISO3":"SWE","UN":752,"NAME":"Sweden","AREA":41033,"POP2005":9038049,"REGION":150,"SUBREGION":154,"LON":15.27,"LAT":62.011}},{"type":"Polygon","id":"SYR","arcs":[[-2063,-1953,-2159,3311,3312,-1990]],"properties":{"FIPS":"SY","ISO2":"SY","ISO3":"SYR","UN":760,"NAME":"Syrian Arab Republic","AREA":18378,"POP2005":18893881,"REGION":142,"SUBREGION":145,"LON":38.506,"LAT":35.013}},{"type":"Polygon","id":"CHE","arcs":[[-1348,-2178,-1346,-1956,-1494,-1742],[-1718]],"properties":{"FIPS":"SZ","ISO2":"CH","ISO3":"CHE","UN":756,"NAME":"Switzerland","AREA":4000,"POP2005":7424389,"REGION":150,"SUBREGION":155,"LON":7.908,"LAT":46.861}},{"type":"MultiPolygon","id":"TTO","arcs":[[[3313]],[[3314]]],"properties":{"FIPS":"TD","ISO2":"TT","ISO3":"TTO","UN":780,"NAME":"Trinidad and Tobago","AREA":513,"POP2005":1323722,"REGION":19,"SUBREGION":29,"LON":-61.253,"LAT":10.468}},{"type":"MultiPolygon","id":"THA","arcs":[[[3315]],[[3316]],[[3317]],[[3318]],[[3319]],[[3320]],[[3321]],[[3322]],[[3323]],[[3324]],[[3325]],[[3326]],[[3327]],[[3328]],[[3329]],[[3330]],[[3331]],[[3332]],[[3333]],[[3334]],[[3335]],[[3336]],[[3337]],[[3338]],[[-2157,-928,3339,-2342,3340,-293]]],"properties":{"FIPS":"TH","ISO2":"TH","ISO3":"THA","UN":764,"NAME":"Thailand","AREA":51089,"POP2005":63002911,"REGION":142,"SUBREGION":35,"LON":100.844,"LAT":15.7}},{"type":"Polygon","id":"TJK","arcs":[[3341,-2072,-1002,-1014]],"properties":{"FIPS":"TI","ISO2":"TJ","ISO3":"TJK","UN":762,"NAME":"Tajikistan","AREA":13996,"POP2005":6550213,"REGION":142,"SUBREGION":143,"LON":69.42,"LAT":38.665}},{"type":"MultiPolygon","id":"TKL","arcs":[[[3342]],[[3343]],[[3344]]],"properties":{"FIPS":"TL","ISO2":"TK","ISO3":"TKL","UN":772,"NAME":"Tokelau","AREA":1,"POP2005":1401,"REGION":9,"SUBREGION":61,"LON":-171.853,"LAT":-9.193}},{"type":"MultiPolygon","id":"TON","arcs":[[[3345]],[[3346]],[[3347]],[[3348]],[[3349]],[[3350]],[[3351]],[[3352]],[[3353]],[[3354]],[[3355]],[[3356]],[[3357]],[[3358]],[[3359]]],"properties":{"FIPS":"TN","ISO2":"TO","ISO3":"TON","UN":776,"NAME":"Tonga","AREA":72,"POP2005":99361,"REGION":9,"SUBREGION":61,"LON":-175.185,"LAT":-21.202}},{"type":"Polygon","id":"TGO","arcs":[[-1516,3360,-297,3361]],"properties":{"FIPS":"TO","ISO2":"TG","ISO3":"TGO","UN":768,"NAME":"Togo","AREA":5439,"POP2005":6238572,"REGION":2,"SUBREGION":11,"LON":1.081,"LAT":8.799}},{"type":"MultiPolygon","id":"STP","arcs":[[[3362]],[[3363]]],"properties":{"FIPS":"TP","ISO2":"ST","ISO3":"STP","UN":678,"NAME":"Sao Tome and Principe","AREA":96,"POP2005":152622,"REGION":2,"SUBREGION":17,"LON":6.629,"LAT":0.201}},{"type":"MultiPolygon","id":"TUN","arcs":[[[3364]],[[3365]],[[3366]],[[3367]],[[-2179,-3,3368]],[[3369]]],"properties":{"FIPS":"TS","ISO2":"TN","ISO3":"TUN","UN":788,"NAME":"Tunisia","AREA":15536,"POP2005":10104685,"REGION":2,"SUBREGION":15,"LON":9.596,"LAT":35.383}},{"type":"MultiPolygon","id":"TUR","arcs":[[[3370]],[[3371]],[[3372]],[[-1510,-29,-12,-1944,-1991,-3313,3373]],[[-1817,-424,3374]]],"properties":{"FIPS":"TU","ISO2":"TR","ISO3":"TUR","UN":792,"NAME":"Turkey","AREA":76963,"POP2005":72969723,"REGION":142,"SUBREGION":145,"LON":35.179,"LAT":39.061}},{"type":"MultiPolygon","id":"TUV","arcs":[[[3375]],[[3376]],[[3377]],[[3378]],[[3379]],[[3380]],[[3381]],[[3382]],[[3383]]],"properties":{"FIPS":"TV","ISO2":"TV","ISO3":"TUV","UN":798,"NAME":"Tuvalu","AREA":3,"POP2005":10441,"REGION":9,"SUBREGION":61,"LON":179.219,"LAT":-8.514}},{"type":"MultiPolygon","id":"TKM","arcs":[[[3384]],[[-1012,-1938,3385,-2154,3386]]],"properties":{"FIPS":"TX","ISO2":"TM","ISO3":"TKM","UN":795,"NAME":"Turkmenistan","AREA":46993,"POP2005":4833266,"REGION":142,"SUBREGION":143,"LON":59.384,"LAT":39.122}},{"type":"MultiPolygon","id":"TZA","arcs":[[[3387]],[[3388]],[[3389]],[[-2069,3390,-2360,-2367,3391,-948,-953,-3228,3392]]],"properties":{"FIPS":"TZ","ISO2":"TZ","ISO3":"TZA","UN":834,"NAME":"United Republic of Tanzania","AREA":88359,"POP2005":38477873,"REGION":2,"SUBREGION":14,"LON":34.823,"LAT":-6.27}},{"type":"Polygon","id":"UGA","arcs":[[-3393,-3227,-945,-3291,-2070]],"properties":{"FIPS":"UG","ISO2":"UG","ISO3":"UGA","UN":800,"NAME":"Uganda","AREA":19710,"POP2005":28947181,"REGION":2,"SUBREGION":14,"LON":32.386,"LAT":1.28}},{"type":"MultiPolygon","id":"GBR","arcs":[[[3393]],[[3394]],[[3395]],[[3396]],[[3397]],[[3398]],[[3399]],[[-1316,3400]],[[3401]],[[3402]],[[3403]],[[3404]],[[3405]],[[3406]],[[3407]],[[3408]],[[3409]],[[3410]],[[3411]],[[3412]],[[3413]],[[3414]],[[3415]],[[3416]],[[3417]],[[3418]],[[3419]],[[3420]],[[3421]],[[3422]],[[3423]],[[3424]],[[3425]],[[3426]],[[3427]],[[3428]],[[3429]],[[3430]],[[3431]],[[3432]],[[3433]],[[3434]],[[3435]],[[3436]],[[3437]],[[3438]],[[3439]],[[3440]]],"properties":{"FIPS":"UK","ISO2":"GB","ISO3":"GBR","UN":826,"NAME":"United Kingdom","AREA":24193,"POP2005":60244834,"REGION":150,"SUBREGION":154,"LON":-1.6,"LAT":53}},{"type":"MultiPolygon","id":"UKR","arcs":[[[3441]],[[3442]],[[3443]],[[-2899,-2902,-2897,-1878,-2177,-2798,-2166,-3160,3444]]],"properties":{"FIPS":"UP","ISO2":"UA","ISO3":"UKR","UN":804,"NAME":"Ukraine","AREA":57935,"POP2005":46917544,"REGION":150,"SUBREGION":151,"LON":31.388,"LAT":49.016}},{"type":"MultiPolygon","id":"USA","arcs":[[[-1233,3445]],[[-1231,3446]],[[3447]],[[3448]],[[3449]],[[3450]],[[3451]],[[3452]],[[3453]],[[3454]],[[3455]],[[3456]],[[3457]],[[3458]],[[3459]],[[3460]],[[3461]],[[3462]],[[3463]],[[3464]],[[3465]],[[3466]],[[3467]],[[3468]],[[3469]],[[3470]],[[3471]],[[3472]],[[3473]],[[3474]],[[3475]],[[3476]],[[3477]],[[3478]],[[3479]],[[3480]],[[3481]],[[3482]],[[3483]],[[3484]],[[3485]],[[3486]],[[3487]],[[3488]],[[3489]],[[3490]],[[3491]],[[3492]],[[3493]],[[3494]],[[3495]],[[3496]],[[3497]],[[3498]],[[3499]],[[3500]],[[3501]],[[3502]],[[3503]],[[3504]],[[3505]],[[3506]],[[3507]],[[3508]],[[3509]],[[3510]],[[3511]],[[3512]],[[3513]],[[3514]],[[3515]],[[3516]],[[3517]],[[3518]],[[3519]],[[3520]],[[3521]],[[3522]],[[3523]],[[3524]],[[3525]],[[3526]],[[3527]],[[3528]],[[3529]],[[3530]],[[3531]],[[3532]],[[3533]],[[3534]],[[3535]],[[3536]],[[3537]],[[3538]],[[3539]],[[3540]],[[3541]],[[3542]],[[3543]],[[3544]],[[3545]],[[3546]],[[3547]],[[3548]],[[3549]],[[3550]],[[3551]],[[3552]],[[3553]],[[3554]],[[3555]],[[-820,3556]],[[-2325,3557,-818,3558]],[[3559]],[[3560]],[[3561]],[[3562]],[[3563]],[[3564]],[[3565]],[[3566]],[[3567]],[[3568]],[[3569]],[[3570]],[[3571]],[[3572]],[[3573]],[[3574]],[[3575]],[[3576]],[[3577]],[[3578]],[[3579]],[[3580]],[[3581]],[[3582]],[[3583]],[[3584]],[[3585]],[[3586]],[[3587]],[[3588]],[[3589]],[[3590]],[[3591]],[[3592]],[[3593]],[[3594]],[[3595]],[[3596]],[[3597]],[[3598]],[[3599]],[[3600]],[[3601]],[[3602]],[[3603]],[[3604]],[[3605]],[[3606]],[[3607]],[[3608]],[[3609]],[[3610]],[[3611]],[[3612]],[[3613]],[[3614]],[[3615]],[[3616]],[[3617]],[[3618]],[[3619]],[[3620]],[[3621]],[[3622]],[[3623]],[[3624]],[[3625]],[[3626]],[[3627]],[[3628]],[[3629]],[[3630]],[[3631]],[[3632]],[[3633]],[[3634]],[[3635]],[[3636]],[[3637]],[[3638]],[[3639]],[[3640]],[[3641]],[[3642]],[[3643]],[[3644]],[[3645]],[[3646]],[[3647]],[[3648]],[[3649]],[[3650]],[[3651]],[[3652]],[[3653]],[[3654]],[[3655]],[[3656]],[[3657]],[[3658]],[[3659]],[[3660]],[[3661]],[[3662]],[[3663]],[[3664]],[[3665]],[[3666]],[[3667]],[[3668]],[[3669]],[[3670]],[[3671]],[[3672]],[[3673]],[[3674]],[[3675]],[[3676]],[[3677]],[[3678]],[[3679]],[[3680]],[[3681]],[[3682]],[[3683]],[[3684]],[[3685]],[[3686]],[[3687]],[[3688]],[[3689]],[[3690]],[[3691]],[[3692]],[[3693]],[[3694]],[[3695]],[[3696]],[[-822,3697]]],"properties":{"FIPS":"US","ISO2":"US","ISO3":"USA","UN":840,"NAME":"United States","AREA":915896,"POP2005":299846449,"REGION":19,"SUBREGION":21,"LON":-98.606,"LAT":39.622}},{"type":"Polygon","id":"BFA","arcs":[[-1984,-2197,-2390,-298,-3361,-1515]],"properties":{"FIPS":"UV","ISO2":"BF","ISO3":"BFA","UN":854,"NAME":"Burkina Faso","AREA":27360,"POP2005":13933363,"REGION":2,"SUBREGION":11,"LON":-1.74,"LAT":12.278}},{"type":"Polygon","id":"URY","arcs":[[-418,3698,-55]],"properties":{"FIPS":"UY","ISO2":"UY","ISO3":"URY","UN":858,"NAME":"Uruguay","AREA":17502,"POP2005":3325727,"REGION":19,"SUBREGION":5,"LON":-56.012,"LAT":-32.8}},{"type":"Polygon","id":"UZB","arcs":[[-2153,-2073,-3342,-1013,-3387]],"properties":{"FIPS":"UZ","ISO2":"UZ","ISO3":"UZB","UN":860,"NAME":"Uzbekistan","AREA":42540,"POP2005":26593123,"REGION":142,"SUBREGION":143,"LON":63.17,"LAT":41.75}},{"type":"MultiPolygon","id":"VCT","arcs":[[[3699]],[[3700]],[[3701]],[[3702]]],"properties":{"FIPS":"VC","ISO2":"VC","ISO3":"VCT","UN":670,"NAME":"Saint Vincent and the Grenadines","AREA":39,"POP2005":119137,"REGION":19,"SUBREGION":29,"LON":-61.194,"LAT":13.248}},{"type":"MultiPolygon","id":"VEN","arcs":[[[3703]],[[3704]],[[3705]],[[3706]],[[3707]],[[3708]],[[3709]],[[3710]],[[3711]],[[3712]],[[3713]],[[3714]],[[3715]],[[3716]],[[3717]],[[3718]],[[3719]],[[3720]],[[3721]],[[-1836,-422,-1193,3722]]],"properties":{"FIPS":"VE","ISO2":"VE","ISO3":"VEN","UN":862,"NAME":"Venezuela","AREA":88205,"POP2005":26725573,"REGION":19,"SUBREGION":5,"LON":-66.166,"LAT":7.125}},{"type":"MultiPolygon","id":"VGB","arcs":[[[3723]],[[3724]],[[3725]]],"properties":{"FIPS":"VI","ISO2":"VG","ISO3":"VGB","UN":92,"NAME":"British Virgin Islands","AREA":15,"POP2005":22016,"REGION":19,"SUBREGION":29,"LON":-64.39,"LAT":18.483}},{"type":"MultiPolygon","id":"VNM","arcs":[[[3726]],[[3727]],[[3728]],[[3729]],[[3730]],[[3731]],[[3732]],[[3733]],[[3734]],[[3735]],[[3736]],[[3737]],[[3738]],[[3739]],[[3740]],[[3741]],[[3742]],[[3743]],[[3744]],[[3745]],[[3746]],[[3747]],[[3748]],[[3749]],[[3750]],[[3751]],[[3752]],[[3753]],[[3754]],[[3755]],[[3756]],[[3757]],[[3758]],[[-930,-2158,-993,3759]]],"properties":{"FIPS":"VM","ISO2":"VN","ISO3":"VNM","UN":704,"NAME":"Viet Nam","AREA":32549,"POP2005":85028643,"REGION":142,"SUBREGION":35,"LON":105.314,"LAT":21.491}},{"type":"MultiPolygon","id":"VIR","arcs":[[[3760]],[[3761]],[[3762]]],"properties":{"FIPS":"VQ","ISO2":"VI","ISO3":"VIR","UN":850,"NAME":"United States Virgin Islands","AREA":35,"POP2005":111408,"REGION":19,"SUBREGION":29,"LON":-64.785,"LAT":17.741}},{"type":"Polygon","id":"NAM","arcs":[[3763,-3261,-3253,3764,-35]],"properties":{"FIPS":"WA","ISO2":"NA","ISO3":"NAM","UN":516,"NAME":"Namibia","AREA":82329,"POP2005":2019677,"REGION":2,"SUBREGION":18,"LON":17.218,"LAT":-22.133}},{"type":"MultiPolygon","id":"WLF","arcs":[[[3765]],[[3766]]],"properties":{"FIPS":"WF","ISO2":"WF","ISO3":"WLF","UN":876,"NAME":"Wallis and Futuna Islands","AREA":14,"POP2005":15079,"REGION":9,"SUBREGION":61,"LON":-178.131,"LAT":-14.289}},{"type":"MultiPolygon","id":"WSM","arcs":[[[3767]],[[3768]]],"properties":{"FIPS":"WS","ISO2":"WS","ISO3":"WSM","UN":882,"NAME":"Samoa","AREA":283,"POP2005":183845,"REGION":9,"SUBREGION":61,"LON":-172.414,"LAT":-13.652}},{"type":"Polygon","id":"SWZ","arcs":[[-2355,-3251]],"properties":{"FIPS":"WZ","ISO2":"SZ","ISO3":"SWZ","UN":748,"NAME":"Swaziland","AREA":1720,"POP2005":1124529,"REGION":2,"SUBREGION":18,"LON":31.497,"LAT":-26.562}},{"type":"MultiPolygon","id":"YEM","arcs":[[[3769]],[[3770]],[[3771]],[[3772]],[[3773]],[[3774]],[[3775]],[[3776]],[[-3238,-2216,3777]]],"properties":{"FIPS":"YM","ISO2":"YE","ISO3":"YEM","UN":887,"NAME":"Yemen","AREA":52797,"POP2005":21095679,"REGION":142,"SUBREGION":145,"LON":48.355,"LAT":15.807}},{"type":"Polygon","id":"ZMB","arcs":[[-34,-949,-3392,-2366,-2358,3778,-3764]],"properties":{"FIPS":"ZA","ISO2":"ZM","ISO3":"ZMB","UN":894,"NAME":"Zambia","AREA":74339,"POP2005":11478317,"REGION":2,"SUBREGION":14,"LON":26.32,"LAT":-14.614}},{"type":"Polygon","id":"ZWE","arcs":[[-3257,-3262,-3779,-2357]],"properties":{"FIPS":"ZI","ISO2":"ZW","ISO3":"ZWE","UN":716,"NAME":"Zimbabwe","AREA":38685,"POP2005":13119679,"REGION":2,"SUBREGION":14,"LON":29.872,"LAT":-19}},{"type":"MultiPolygon","id":"IDN","arcs":[[[3779]],[[3780]],[[3781]],[[3782]],[[3783,3784,3785,3786]],[[3787]],[[3788]],[[3789]],[[3790]],[[3791]],[[3792]],[[3793]],[[3794]],[[3795]],[[3796]],[[3797]],[[3798]],[[3799]],[[3800]],[[3801]],[[3802]],[[3803]],[[3804]],[[3805]],[[3806]],[[3807]],[[3808]],[[3809]],[[3810]],[[3811]],[[3812]],[[3813]],[[3814]],[[3815]],[[3816]],[[3817]],[[3818]],[[3819]],[[3820]],[[3821]],[[3822]],[[3823]],[[3824]],[[3825]],[[3826]],[[3827]],[[3828]],[[3829]],[[3830]],[[3831]],[[3832]],[[3833]],[[3834]],[[3835]],[[3836]],[[3837]],[[3838]],[[3839]],[[3840]],[[3841]],[[3842]],[[3843]],[[3844]],[[3845]],[[3846]],[[3847]],[[3848]],[[3849]],[[3850]],[[3851]],[[3852]],[[3853]],[[3854]],[[3855]],[[3856]],[[3857]],[[3858]],[[3859]],[[3860]],[[3861]],[[3862]],[[3863]],[[3864]],[[3865]],[[3866]],[[3867]],[[3868]],[[3869]],[[3870]],[[3871]],[[3872]],[[3873]],[[3874]],[[3875]],[[3876]],[[3877]],[[3878]],[[3879]],[[3880]],[[3881]],[[3882]],[[3883]],[[3884]],[[3885]],[[3886]],[[3887]],[[3888]],[[3889]],[[3890]],[[3891]],[[3892]],[[3893]],[[3894]],[[3895]],[[3896]],[[3897]],[[3898]],[[3899]],[[3900]],[[3901]],[[3902]],[[3903]],[[3904]],[[3905]],[[3906]],[[3907]],[[3908]],[[3909]],[[3910]],[[3911]],[[3912]],[[3913]],[[3914]],[[3915]],[[3916]],[[3917]],[[3918]],[[3919]],[[3920]],[[3921]],[[3922]],[[3923]],[[3924]],[[3925]],[[3926]],[[3927]],[[3928]],[[3929]],[[3930]],[[3931]],[[3932]],[[3933]],[[3934]],[[3935]],[[3936]],[[3937]],[[3938]],[[3939]],[[3940]],[[3941]],[[-2869,3942]],[[3943]],[[3944]],[[3945]],[[3946]],[[3947]],[[3948]],[[3949]],[[3950]],[[3951]],[[3952]],[[3953]],[[3954]],[[3955]],[[3956]],[[3957]],[[3958]],[[3959]],[[3960]],[[3961]],[[3962]],[[3963]],[[3964]],[[3965]],[[3966]],[[3967]],[[3968]],[[3969]],[[3970]],[[3971]],[[3972]],[[3973]],[[3974]],[[3975]],[[3976]],[[3977]],[[3978]],[[3979]],[[3980]],[[3981]],[[3982]],[[3983]],[[3984]],[[3985]],[[3986]],[[3987]],[[3988]],[[3989]],[[3990]],[[3991]],[[3992]],[[3993]],[[3994]],[[3995]],[[3996]],[[3997]],[[3998]],[[3999]],[[4000]],[[4001]],[[4002]],[[4003]],[[4004]],[[4005]],[[4006]],[[4007]],[[4008]],[[4009]],[[4010]],[[4011]],[[4012]],[[4013]],[[4014]],[[4015]],[[4016]],[[4017]],[[4018]],[[4019]],[[4020]],[[4021]],[[4022]],[[4023]],[[4024]],[[4025]],[[4026]],[[4027]],[[4028]],[[4029]],[[4030]],[[4031]],[[-2330,4032]],[[4033]],[[-2345,4034]],[[4035]],[[4036]],[[4037]],[[4038]],[[4039]],[[4040]],[[4041]]],"properties":{"FIPS":"ID","ISO2":"ID","ISO3":"IDN","UN":360,"NAME":"Indonesia","AREA":181157,"POP2005":226063044,"REGION":142,"SUBREGION":35,"LON":114.252,"LAT":-0.976}},{"type":"MultiPolygon","id":"GLP","arcs":[[[4042]],[[4043]],[[4044]],[[4045]]],"properties":{"FIPS":"GP","ISO2":"GP","ISO3":"GLP","UN":312,"NAME":"Guadeloupe","AREA":169,"POP2005":438403,"REGION":19,"SUBREGION":29,"LON":-61.441,"LAT":16.286}},{"type":"MultiPolygon","id":"ANT","arcs":[[[4046]],[[4047]],[[4048]]],"properties":{"FIPS":"NT","ISO2":"AN","ISO3":"ANT","UN":530,"NAME":"Netherlands Antilles","AREA":80,"POP2005":186392,"REGION":19,"SUBREGION":29,"LON":-68.87,"LAT":12.123}},{"type":"MultiPolygon","id":"ARE","arcs":[[[4049]],[[4050]],[[4051]],[[4052]],[[4053]],[[4054]],[[4055]],[[4056]],[[4057]],[[4058]],[[-2218,-3237,4059,-2220,4060]]],"properties":{"FIPS":"AE","ISO2":"AE","ISO3":"ARE","UN":784,"NAME":"United Arab Emirates","AREA":8360,"POP2005":4104291,"REGION":142,"SUBREGION":145,"LON":54.163,"LAT":23.549}},{"type":"MultiPolygon","id":"TLS","arcs":[[[-3784,4061]],[[-3786,4062]]],"properties":{"FIPS":"TT","ISO2":"TL","ISO3":"TLS","UN":626,"NAME":"Timor-Leste","AREA":1487,"POP2005":1067285,"REGION":142,"SUBREGION":35,"LON":125.878,"LAT":-8.822}},{"type":"MultiPolygon","id":"PCN","arcs":[[[4063]],[[4064]],[[4065]]],"properties":{"FIPS":"PC","ISO2":"PN","ISO3":"PCN","UN":612,"NAME":"Pitcairn Islands","AREA":0,"POP2005":5,"REGION":9,"SUBREGION":61,"LON":-128.316,"LAT":-24.366}},{"type":"MultiPolygon","id":"PLW","arcs":[[[4066]],[[4067]],[[4068]],[[4069]],[[4070]],[[4071]],[[4072]]],"properties":{"FIPS":"PS","ISO2":"PW","ISO3":"PLW","UN":585,"NAME":"Palau","AREA":0,"POP2005":20127,"REGION":9,"SUBREGION":57,"LON":134.57,"LAT":7.501}},{"type":"MultiPolygon","id":"MHL","arcs":[[[4073]],[[4074]],[[4075]],[[4076]],[[4077]],[[4078]],[[4079]],[[4080]],[[4081]],[[4082]],[[4083]],[[4084]],[[4085]],[[4086]],[[4087]],[[4088]],[[4089]],[[4090]],[[4091]],[[4092]],[[4093]],[[4094]],[[4095]]],"properties":{"FIPS":"RM","ISO2":"MH","ISO3":"MHL","UN":584,"NAME":"Marshall Islands","AREA":0,"POP2005":5672,"REGION":9,"SUBREGION":57,"LON":168.963,"LAT":7.595}},{"type":"MultiPolygon","id":"SPM","arcs":[[[4096]],[[4097]]],"properties":{"FIPS":"SB","ISO2":"PM","ISO3":"SPM","UN":666,"NAME":"Saint Pierre and Miquelon","AREA":0,"POP2005":6346,"REGION":19,"SUBREGION":21,"LON":-56.325,"LAT":47.042}},{"type":"MultiPolygon","id":"SHN","arcs":[[[4098]],[[4099]],[[4100]],[[4101]]],"properties":{"FIPS":"SH","ISO2":"SH","ISO3":"SHN","UN":654,"NAME":"Saint Helena","AREA":0,"POP2005":6399,"REGION":2,"SUBREGION":11,"LON":-5.71,"LAT":-15.953}},{"type":"Polygon","id":"SMR","arcs":[[4102]],"properties":{"FIPS":"SM","ISO2":"SM","ISO3":"SMR","UN":674,"NAME":"San Marino","AREA":0,"POP2005":30214,"REGION":150,"SUBREGION":39,"LON":12.46,"LAT":43.942}},{"type":"MultiPolygon","id":"TCA","arcs":[[[4103]],[[4104]],[[4105]],[[4106]],[[4107]],[[4108]]],"properties":{"FIPS":"TK","ISO2":"TC","ISO3":"TCA","UN":796,"NAME":"Turks and Caicos Islands","AREA":0,"POP2005":24459,"REGION":19,"SUBREGION":29,"LON":-71.95,"LAT":21.902}},{"type":"Polygon","id":"ESH","arcs":[[-2202,-8,-2210,4109]],"properties":{"FIPS":"WI","ISO2":"EH","ISO3":"ESH","UN":732,"NAME":"Western Sahara","AREA":0,"POP2005":440428,"REGION":2,"SUBREGION":15,"LON":-13.706,"LAT":24.554}},{"type":"Polygon","id":"SRB","arcs":[[-240,-1873,-1880,-2901,-429,-2193,-23,-2432]],"properties":{"FIPS":"RB","ISO2":"RS","ISO3":"SRB","UN":688,"NAME":"Serbia","AREA":0,"POP2005":9863026,"REGION":150,"SUBREGION":39,"LON":20.806,"LAT":44.032}},{"type":"Polygon","id":"VAT","arcs":[[-1958]],"properties":{"FIPS":"VT","ISO2":"VA","ISO3":"VAT","UN":336,"NAME":"Holy See (Vatican City)","AREA":0,"POP2005":783,"REGION":150,"SUBREGION":39,"LON":12.451,"LAT":41.904}},{"type":"MultiPolygon","id":"SJM","arcs":[[[4110]],[[4111]],[[4112]],[[4113]],[[4114]],[[4115]],[[4116]],[[4117]],[[4118]],[[4119]],[[4120]],[[4121]],[[4122]],[[4123]],[[4124]],[[4125]],[[4126]],[[4127]],[[4128]],[[4129]],[[4130]],[[4131]],[[4132]],[[4133]],[[4134]],[[4135]],[[4136]],[[4137]]],"properties":{"FIPS":"SV","ISO2":"SJ","ISO3":"SJM","UN":744,"NAME":"Svalbard","AREA":0,"POP2005":0,"REGION":150,"SUBREGION":154,"LON":18.374,"LAT":78.83}},{"type":"Polygon","id":"MAF","arcs":[[4138,4139]],"properties":{"FIPS":"RN","ISO2":"MF","ISO3":"MAF","UN":663,"NAME":"Saint Martin","AREA":0,"POP2005":0,"REGION":19,"SUBREGION":29,"LON":-63.041,"LAT":18.094}},{"type":"Polygon","id":"BLM","arcs":[[-4139,4140]],"properties":{"FIPS":"TB","ISO2":"BL","ISO3":"BLM","UN":652,"NAME":"Saint Barthelemy","AREA":0,"POP2005":0,"REGION":19,"SUBREGION":29,"LON":-63.043,"LAT":18.04}},{"type":"Polygon","id":"GGY","arcs":[[4141]],"properties":{"FIPS":"GK","ISO2":"GG","ISO3":"GGY","UN":831,"NAME":"Guernsey","AREA":0,"POP2005":0,"REGION":150,"SUBREGION":154,"LON":-2.576,"LAT":49.459}},{"type":"Polygon","id":"JEY","arcs":[[4142]],"properties":{"FIPS":"JE","ISO2":"JE","ISO3":"JEY","UN":832,"NAME":"Jersey","AREA":0,"POP2005":0,"REGION":150,"SUBREGION":154,"LON":-2.129,"LAT":49.219}},{"type":"MultiPolygon","id":"SGS","arcs":[[[4143]],[[4144]],[[4145]],[[4146]],[[4147]],[[4148]],[[4149]],[[4150]],[[4151]]],"properties":{"FIPS":"SX","ISO2":"GS","ISO3":"SGS","UN":239,"NAME":"South Georgia South Sandwich Islands","AREA":0,"POP2005":0,"REGION":0,"SUBREGION":0,"LON":-36.891,"LAT":-54.209}},{"type":"MultiPolygon","id":"TWN","arcs":[[[4152]],[[4153]],[[4154]],[[4155]],[[4156]],[[4157]],[[4158]]],"properties":{"FIPS":"TW","ISO2":"TW","ISO3":"TWN","UN":158,"NAME":"Taiwan","AREA":0,"POP2005":0,"REGION":0,"SUBREGION":0,"LON":120.946,"LAT":23.754}}]}},"arcs":[[[32864,61641],[-14,-20],[-42,24],[-1,36],[27,40],[35,-43],[-5,-37]],[[32852,61977],[0,-35],[-34,20],[-6,70],[24,-2],[16,-53]],[[52394,73112],[4,-64],[-44,-50],[-8,-50],[-69,-61],[-5,-30],[51,-23],[-28,-314],[3,-95],[20,-95],[-13,-125],[28,-101],[-21,-47],[-21,-268],[-36,-61],[-70,-59],[-28,-115],[-38,-21],[-32,-68],[-7,-112],[18,-120],[47,-150],[2,-98],[12,-26],[67,-51],[20,0],[60,-162],[12,-173],[196,-250],[92,-725],[42,-349]],[[52648,69249],[-65,-65],[41,-90],[59,-182],[29,-128],[25,-208],[5,-119],[-24,-347],[46,-224],[-20,-142],[-41,-171],[32,-240],[22,-28],[-3,-107],[-13,-92],[-103,-90],[-28,-88],[10,-58],[167,-451],[5,-278],[45,-50],[10,-84],[47,-74],[81,52],[83,-63],[152,-90],[119,-449]],[[53329,65383],[-247,-291],[-453,-548],[-560,-698],[-272,-481],[-183,-330],[-436,-172]],[[51178,62863],[-253,-98],[-61,103],[45,128],[-17,98],[4,159],[-91,82],[-87,20],[-49,32],[-19,70],[-36,59],[-36,-37],[-51,25],[-65,86],[-1,73],[-51,61],[-84,52],[-5,43],[11,113],[-8,57],[-327,420],[-315,450],[-363,504],[-373,503],[-282,368]],[[48664,66234],[-134,173],[-277,348],[-391,478],[-270,320]],[[47592,67553],[0,217]],[[47592,67770],[-1,601],[48,46],[82,136],[59,56],[95,151],[58,5],[40,85],[50,57],[150,-40],[26,99],[22,35],[47,-3],[18,23],[61,0],[114,37],[73,88],[55,123],[28,108],[18,32],[75,51],[68,27],[63,70],[39,79],[86,18],[28,22],[4,69],[-57,30],[1,110],[-11,92],[5,109],[29,16],[57,-25],[144,93],[15,99],[25,48],[142,39],[115,-21],[127,-6],[72,-12],[-11,133],[67,109],[-103,124],[-44,124],[17,71],[-52,112],[1,76],[18,77],[-16,82],[-20,17],[5,108],[15,116],[-26,153],[-12,17],[29,61],[-47,69],[31,82],[-121,153],[-8,42]],[[49385,72043],[87,1],[40,24],[77,102],[29,3],[31,55],[25,98],[37,57],[68,51],[48,-27],[40,85],[38,19],[12,-39],[51,-28],[37,39],[31,116],[112,126],[92,61],[23,43],[64,36],[90,6],[177,35],[55,29],[17,-23],[62,5],[55,59],[20,50],[30,10],[24,-34],[39,16],[68,-7],[42,25],[32,45],[42,17],[60,-19],[52,11],[71,-11],[67,5],[85,-66],[19,-63],[45,-17],[56,30],[47,74],[92,14],[56,40],[11,62],[25,34],[44,-6],[20,-56],[89,-51],[65,16],[21,24],[2,76],[65,-25],[43,-39],[41,-5],[2,-50],[49,-20],[78,64],[45,-21],[64,13]],[[62826,74206],[-205,90],[-36,116],[-46,9],[-8,56],[-46,71],[-17,98],[-21,15]],[[62447,74661],[-10,43]],[[62437,74704],[85,36],[69,-134],[35,-24],[76,50],[25,-18],[10,-116],[42,-56],[-11,-49],[58,-187]],[[62567,75436],[0,0]],[[62511,75470],[0,0]],[[63579,73976],[-74,-27],[-50,131],[-33,-9],[-22,70],[-58,53],[-6,49],[19,29],[50,12],[18,46],[-54,90],[19,72],[44,27],[-80,159],[-26,34],[-44,-22],[-77,-96],[-42,-26],[-30,-56],[-51,-39],[-19,-65],[-51,-18],[-30,-70],[-55,-94]],[[62927,74226],[-13,45],[2,96],[-12,56],[44,0],[-59,92],[-3,41],[30,11],[5,66],[-47,26],[-41,-17],[-51,95],[-53,49],[-12,51],[-53,24],[24,27],[61,-5],[28,123],[-35,23],[-93,105],[-43,123],[16,42],[38,23],[11,54],[-70,74],[-74,32],[-6,34],[34,1],[-13,47],[-30,14],[-7,42]],[[62505,75620],[65,87],[26,7],[102,-64],[0,-41],[57,-51],[39,-10],[50,20],[74,-92],[32,31],[24,93],[-7,34],[-98,93],[-37,108],[7,53],[25,-5],[38,83]],[[62902,75966],[33,-8],[19,-39],[32,27],[5,-38],[87,-133],[20,0],[27,-76],[3,-59],[88,-70],[90,5],[0,35],[47,109],[48,24],[49,60],[44,128]],[[63494,75931],[25,-29],[102,-214],[27,-79],[19,-137],[54,-109],[39,-44],[-9,-43],[21,-44],[68,-35],[40,16],[72,-55],[35,-69],[5,-65],[-70,56],[-77,-21],[-76,-63],[-40,-88],[7,-26],[-17,-186],[-20,-36],[-11,-74],[37,-67],[-49,-61],[-12,-151],[-37,-29],[22,78],[-25,43],[-25,-1],[-2,-84],[-20,-89],[-4,-74],[6,-175]],[[62641,75223],[0,0]],[[55379,75938],[-7,37],[16,111],[-32,50],[121,271],[7,-69],[21,-41],[69,51]],[[55574,76348],[27,-31],[25,-106],[54,-25],[21,-39],[27,-141],[-10,-49]],[[55718,75957],[-21,-89],[6,-53],[-21,-69],[29,-62],[-20,-44],[30,-137],[20,-3],[17,-101],[59,4],[11,-37]],[[55828,75366],[19,-103],[-3,-66],[-25,-52],[-45,-23],[-32,-190],[-70,-25],[-30,-37],[28,-91],[-35,-17],[9,-42],[-28,-49],[-59,25]],[[55557,74696],[-6,101],[-34,98],[-117,112],[-43,107],[53,-39],[-8,125],[-40,45],[30,127],[30,24],[-24,65],[21,133],[-19,90],[40,133],[2,101],[-63,20]],[[62658,75238],[0,0]],[[62927,74226],[-52,20],[-49,-40]],[[62437,74704],[-52,73],[-28,75],[-58,48],[-69,-23],[-33,7],[-67,47],[13,39],[-31,116],[-4,76],[41,95],[1,60],[-38,126],[-32,16],[-9,55]],[[62071,75514],[24,13],[57,-13],[37,31],[66,9],[35,24],[90,-22],[84,19],[41,45]],[[62502,75468],[0,0]],[[62553,75448],[0,0]],[[53263,42185],[-24,110],[12,16],[12,-126]],[[56662,45574],[11,-218],[16,-88],[-15,-32],[-18,-113],[14,-92],[-9,-39],[-2,-183],[21,-107],[-22,-73],[-23,-139],[1,-46],[35,-100],[-561,1],[0,-1824],[34,-97],[3,-84],[99,-166],[67,-154],[93,-167],[38,-85],[76,-84]],[[56520,41684],[-329,-130],[-253,-94],[-42,45],[-79,-20],[-25,-26],[-85,20],[-59,71],[-66,-22],[-50,22],[-100,-6],[-60,12],[-28,24],[-60,-14],[-75,47],[-32,58],[-53,149],[-261,-2],[-419,3],[-496,0],[-36,-25],[-44,17],[-111,167],[-9,48],[-34,34],[-59,9],[-78,-48],[-18,-42],[-59,-67],[-87,-2],[-57,54],[-44,-27],[-34,-51],[-14,9]],[[53264,41897],[6,251],[10,16],[3,166],[-12,237],[9,57],[-19,63],[10,61],[32,16],[30,86],[9,64],[6,156],[61,272],[18,198],[-7,128],[12,80],[41,117],[8,148],[-7,90],[72,136],[55,136],[-12,59],[13,38],[62,104],[48,4],[24,47],[21,98],[37,101],[28,131],[8,83],[-5,127],[4,137],[9,25],[8,196],[-35,103],[13,59],[-68,155],[-3,70],[-56,181],[4,40],[-21,72],[-23,211],[-51,185],[81,177],[23,7],[14,66],[-18,106],[13,48],[-37,127],[-85,419],[-23,98],[-15,183],[-78,183],[-48,216],[-33,92],[93,36],[59,10],[44,67],[64,26]],[[53660,48462],[79,5],[82,-8],[61,15],[73,-29],[99,-13],[32,16],[101,11],[171,3],[32,-7],[156,9],[63,-38],[3,-62],[33,-98],[-11,-118],[27,-161],[52,-200],[-10,-48],[16,-105],[44,-91],[44,-175],[36,-69],[32,-119],[20,-9],[71,32],[35,-38],[30,1],[-1,45],[23,19],[92,0],[1,38],[65,0],[8,-40],[161,2],[-6,50],[14,131],[-7,63],[26,0],[19,65],[-13,81],[13,186],[215,1],[5,46],[83,0],[-24,-121],[2,-92],[340,1],[19,-49],[3,-129],[-22,-103],[-7,-93],[53,-283],[-1,-71],[-28,-302],[-2,-133],[-10,-67],[16,-117],[58,-150],[27,-21],[15,-136],[29,-121],[-11,-86],[12,-125],[-43,-75],[38,-217],[47,55],[14,58],[55,-30],[37,25],[26,-26],[78,12],[40,53],[42,12],[39,-28],[63,-3],[28,83]],[[53340,48947],[39,68],[11,79],[37,-12],[20,102],[66,25],[31,94],[28,-1],[63,-135]],[[53635,49167],[0,-17],[-64,-30],[-42,-118],[-40,-61],[-9,-52],[-1,-351],[-68,-6],[-19,-19]],[[53392,48513],[-17,50],[7,81],[15,14],[-19,128],[-38,161]],[[2627,43601],[0,0]],[[2600,43605],[-29,-49],[-23,29],[44,40],[8,-20]],[[2932,43621],[0,0]],[[2881,43663],[0,0]],[[2865,43661],[0,0]],[[30932,20222],[2,48]],[[30934,20270],[22,-40],[-24,-8]],[[32273,20313],[-39,-47],[-16,19],[-67,-36],[-20,31],[-26,-29],[-72,-40],[-19,36],[21,41],[20,-15],[73,42],[47,-9],[72,17],[26,-10]],[[30934,20280],[5,1236]],[[30939,21516],[99,-199],[-37,-16],[-42,-64],[-4,-48],[36,-48],[64,5],[30,-55],[13,-82],[21,-50],[106,-127],[7,-51],[56,-64],[187,-156],[37,-64],[87,-73],[120,-69],[38,-9],[95,22],[53,-13],[-58,-155],[-38,14],[-34,-17],[-43,21],[-48,-2],[-22,-33],[-48,-19],[-46,4],[-26,-40],[-57,15],[-47,50],[-56,18],[-130,17],[-62,-5],[-88,17],[-60,23],[-69,-22],[-39,39]],[[32811,29233],[-52,45],[-4,44],[51,-28],[5,-61]],[[32778,29335],[0,0]],[[32598,39027],[34,-76],[66,-72],[36,-150],[35,-78],[12,-69],[63,-91],[5,-43],[42,-32],[38,-68],[94,-107],[28,-120],[111,-48],[11,-32],[80,-50],[69,16],[157,-198],[37,-78],[111,-113],[38,-57],[98,-42],[28,-68],[46,0],[87,-65],[32,-51],[31,-114],[23,-32],[-4,-69],[-47,-105],[-44,-127],[10,-34],[-77,-113],[4,-29],[-23,-97],[9,-132],[-38,-125],[-22,-21],[-47,-120],[-26,-37],[15,-78],[35,18],[130,9],[77,-20],[27,-35],[157,-73],[45,43],[51,-50],[15,25],[41,1],[20,-53],[30,-11],[22,107],[35,44],[67,-12],[14,-44],[33,-16],[34,48],[16,137],[42,81],[73,49],[52,69],[3,39],[28,23],[38,127],[18,143],[-9,120],[17,22],[-5,170],[7,43]],[[34833,37106],[40,-34],[39,45],[38,-4],[22,39],[58,-80],[18,-97],[-1,-87],[47,-143],[-14,-86],[-7,-199],[10,-104],[-30,-146],[-55,-34],[-40,-58],[-37,-80],[-69,-36],[-44,-38],[-37,7],[-25,-111],[-31,-56],[-45,-13],[-37,-36],[-36,-96],[-50,-32],[-38,-68],[27,-35],[-17,-25],[-46,-4],[-32,-110],[-45,-96],[-33,-32],[-39,-167],[-59,-70],[-13,-80],[-114,-246],[-54,-33],[-8,-90],[-44,-88],[-35,-33]],[[33997,34450],[-17,-98],[-61,-96],[1,-53],[20,-60],[5,-91],[-33,-220],[-22,-85],[-24,-32],[28,-60],[-16,-127],[-47,-61],[17,-60],[-11,-95],[24,-93],[-28,-74]],[[33833,33145],[-7,-73],[20,-211],[-9,-84],[-62,5],[-5,-104],[-23,-83],[-12,-147],[6,-68],[19,-45],[4,-88],[17,-20],[2,-82],[-34,-80],[10,-128],[83,-115],[103,-75],[128,-160],[41,-95],[16,-86],[-69,-179],[0,-105],[19,-78],[55,-106],[49,-49],[43,35],[23,-59],[7,-96],[2,-187],[-43,-105],[-73,-213],[-111,-215],[-14,-64],[0,-86],[-31,-57],[-54,-62],[-129,-110],[-129,-66],[-75,-54],[-242,-87],[-155,-48],[-175,-40],[-80,10],[-45,-20],[-76,16],[-74,39],[-34,59],[-52,-4],[32,-76],[-16,-71],[3,-106],[46,-14],[38,-44],[-8,-30],[-39,62],[-21,-21],[56,-93],[-13,-192],[-43,-1],[-20,-100],[-6,-108],[-35,-63],[20,-88],[51,-118],[-21,-107],[-115,-110],[-116,-66],[-174,-3],[-53,58],[-212,134],[-15,57],[-59,4],[-41,-70],[-9,-140],[27,-197],[22,-42],[-10,-109],[10,-48],[-25,-109],[19,-72],[39,-57],[75,-38],[40,-6],[-41,-84],[43,-19],[85,6],[25,26],[-2,65],[-74,26],[47,13],[80,62],[33,8],[46,-142],[3,-156],[-15,-95],[-17,-29],[-110,-40],[-45,66],[15,79],[-56,71],[-60,-1],[-63,-68],[-30,-11],[-19,-49],[8,-32],[50,-26],[59,-58],[82,-31],[-81,-70],[-67,-35],[-54,-73],[-27,-86],[-55,-115],[1,-96],[17,-86],[13,8],[-4,-90],[-24,-50],[17,-66],[-38,-120],[-71,-74],[-20,-104],[51,-40],[-20,-67],[-24,-15],[-42,32],[-95,13],[-91,-67],[-16,-44],[-81,-33],[-39,-43],[-53,-143],[-35,-45],[-18,-104],[-42,-74],[-24,-88],[10,-130],[21,-90],[47,-96],[66,-76],[82,-139],[38,-29],[82,-6],[76,-19],[32,14],[60,-78],[10,-73],[-6,-115],[-34,-134],[-44,-1],[-25,-41],[45,30],[48,-84],[-51,-28],[3,-66],[-32,-7],[-110,-171],[-54,-23],[-45,-76],[-38,-14],[-47,-47],[-30,-84],[-46,-41],[-50,-86],[-6,-75],[-49,-87],[-7,-40],[30,16],[29,60],[-25,-149],[-22,-201],[-65,-101],[-54,-39],[-39,-2],[-70,110],[-31,-27],[37,-5],[18,-53],[37,-34],[-20,-39],[-118,-73],[-59,-122],[-18,-113],[0,-85],[-41,-69],[31,20],[14,-109],[50,-216],[-50,-44],[-44,30],[-54,-11],[85,-33],[53,6],[83,-229],[49,-86],[37,-89],[-17,-30]],[[30988,21668],[2,28],[-110,29],[-45,42],[-67,36],[-64,0],[-149,85],[-531,0],[-15,85],[-60,74],[-31,14],[-30,105],[17,22],[22,147],[-38,57],[35,53],[8,98],[-28,66],[14,44],[-22,31],[-43,4],[-18,-33],[-51,24],[-77,-80],[-35,15],[-20,132],[-4,84],[-24,73],[-48,49],[16,82],[-27,47],[33,82],[-18,97],[-21,40],[33,134],[92,4],[-11,52],[27,86],[28,52],[54,21],[64,89],[-15,171],[88,84],[-9,153],[-54,66],[-5,33],[55,168],[-1,101],[44,9],[46,84],[37,24],[6,53],[-32,62],[9,122],[71,69],[4,103],[-14,53],[-5,99],[-42,70],[34,10],[45,79],[-6,48],[-36,32],[-9,64],[10,98],[80,49],[48,99],[-12,49],[-70,144],[-133,42],[1,82],[69,-19],[93,26],[59,-29],[10,76],[35,70],[-27,65],[-57,16],[-113,-4],[7,51],[-9,93],[49,137],[-43,82],[31,57],[-3,47],[-68,86],[15,71],[40,10],[4,74],[-30,27],[-46,6],[-36,64],[10,89],[-10,154],[26,120],[-24,56],[25,75],[30,-15],[57,44],[-16,135],[-37,138],[19,45],[-14,114],[17,165],[-4,91],[-27,100],[30,67],[14,116],[19,-9],[16,51],[-42,81],[7,50],[35,39],[9,56],[-20,125],[-1,66],[55,-1],[30,165],[-5,168],[5,70],[99,100],[31,-1],[21,35],[10,69],[-42,92],[-11,102],[5,92],[-50,206],[17,77],[2,73],[-25,80],[24,115],[-21,153],[41,209],[89,36],[4,88],[32,61],[42,6],[12,45],[-5,102],[21,52],[-20,79],[-3,177],[-32,33],[1,59],[46,26],[1,89],[36,198],[52,145],[6,77],[56,16],[-23,276],[10,125],[26,88],[-6,65],[-38,25],[-20,-30],[-24,62],[-2,78],[31,93],[-45,79],[-1,160],[-25,95],[-16,10],[-13,119],[25,28],[7,55],[-16,32],[-38,8],[-45,179],[19,232],[16,39],[28,-1],[19,37],[-10,43],[17,159],[38,137],[55,40],[30,129],[-27,85],[2,165],[-33,206],[2,42],[33,81],[33,28],[19,167],[-6,82],[23,69],[1,81],[34,49],[54,119],[10,60],[39,45],[23,168],[60,200],[21,104],[41,-21],[88,69],[11,62],[-83,236],[5,115],[47,93],[-27,232],[-28,136],[5,87],[25,111],[37,32],[-59,191],[48,155],[24,8],[15,55],[255,216],[51,363],[42,224],[-51,104]],[[31337,38691],[16,58],[32,45],[-3,69],[69,55],[10,115],[109,64],[11,23],[20,165],[43,-24],[42,-58],[54,-104],[37,8],[170,5],[74,-52],[14,7],[36,-56],[4,-82],[18,-61],[2,-74],[26,-54],[4,-74],[13,19],[5,105],[17,81],[26,57],[52,236],[313,2],[13,-91],[34,-48]],[[94132,20324],[-13,25],[20,100],[16,9],[-23,-134]],[[90933,26840],[-12,-59],[-40,-1],[-15,46],[47,92],[20,-78]],[[90951,26923],[-19,-5],[-19,57],[19,52],[19,-104]],[[91157,27263],[-43,-51],[-1,73],[33,19],[11,-41]],[[91202,27439],[0,0]